$GPGGA,132411.940,4655.397,N,07106.009,W,1,12,1.0,0.0,M,0.0,M,,*73
$GPGSA,A,3,01,02,03,04,05,06,07,08,09,10,11,12,1.0,1.0,1.0*30
$GPRMC,132411.940,A,4655.397,N,07106.009,W,767.8,242.1,300123,000.0,W*6F
$GPGGA,132412.940,4655.267,N,07106.256,W,1,12,1.0,0.0,M,0.0,M,,*76
$GPGSA,A,3,01,02,03,04,05,06,07,08,09,10,11,12,1.0,1.0,1.0*30
$GPRMC,132412.940,A,4655.267,N,07106.256,W,727.0,238.8,300123,000.0,W*62
$GPGGA,132413.940,4655.133,N,07106.478,W,1,12,1.0,0.0,M,0.0,M,,*7F
$GPGSA,A,3,01,02,03,04,05,06,07,08,09,10,11,12,1.0,1.0,1.0*30
$GPRMC,132413.940,A,4655.133,N,07106.478,W,742.4,243.0,300123,000.0,W*68
$GPGGA,132414.940,4655.010,N,07106.720,W,1,12,1.0,0.0,M,0.0,M,,*76
$GPGSA,A,3,01,02,03,04,05,06,07,08,09,10,11,12,1.0,1.0,1.0*30
$GPRMC,132414.940,A,4655.010,N,07106.720,W,610.3,238.6,300123,000.0,W*6A
$GPGGA,132415.940,4654.898,N,07106.905,W,1,12,1.0,0.0,M,0.0,M,,*77
$GPGSA,A,3,01,02,03,04,05,06,07,08,09,10,11,12,1.0,1.0,1.0*30
$GPRMC,132415.940,A,4654.898,N,07106.905,W,687.3,187.7,300123,000.0,W*63
$GPGGA,132416.940,4654.708,N,07106.931,W,1,12,1.0,0.0,M,0.0,M,,*75
$GPGSA,A,3,01,02,03,04,05,06,07,08,09,10,11,12,1.0,1.0,1.0*30
$GPRMC,132416.940,A,4654.708,N,07106.931,W,761.4,184.2,300123,000.0,W*69
$GPGGA,132417.940,4654.497,N,07106.946,W,1,12,1.0,0.0,M,0.0,M,,*71
$GPGSA,A,3,01,02,03,04,05,06,07,08,09,10,11,12,1.0,1.0,1.0*30
$GPRMC,132417.940,A,4654.497,N,07106.946,W,1765.1,134.3,300123,000.0,W*57
$GPGGA,132418.940,4654.095,N,07106.534,W,1,12,1.0,0.0,M,0.0,M,,*71
$GPGSA,A,3,01,02,03,04,05,06,07,08,09,10,11,12,1.0,1.0,1.0*30
$GPRMC,132418.940,A,4654.095,N,07106.534,W,2514.9,132.1,300123,000.0,W*5C
$GPGGA,132419.940,4653.539,N,07105.916,W,1,12,1.0,0.0,M,0.0,M,,*7B
$GPGSA,A,3,01,02,03,04,05,06,07,08,09,10,11,12,1.0,1.0,1.0*30
$GPRMC,132419.940,A,4653.539,N,07105.916,W,1730.6,130.0,300123,000.0,W*5D
$GPGGA,132420.940,4653.168,N,07105.471,W,1,12,1.0,0.0,M,0.0,M,,*7D
$GPGSA,A,3,01,02,03,04,05,06,07,08,09,10,11,12,1.0,1.0,1.0*30
$GPRMC,132420.940,A,4653.168,N,07105.471,W,968.6,132.3,300123,000.0,W*68
$GPGGA,132421.940,4652.953,N,07105.235,W,1,12,1.0,0.0,M,0.0,M,,*7B
$GPGSA,A,3,01,02,03,04,05,06,07,08,09,10,11,12,1.0,1.0,1.0*30
$GPRMC,132421.940,A,4652.953,N,07105.235,W,968.6,000.0,300123,000.0,W*6D
$GPGGA,132422.940,4652.953,N,07105.235,W,1,12,1.0,0.0,M,0.0,M,,*78
$GPGSA,A,3,01,02,03,04,05,06,07,08,09,10,11,12,1.0,1.0,1.0*30
$GPRMC,132422.940,A,4652.953,N,07105.235,W,038.9,125.6,300123,000.0,W*6D
$GPGGA,132423.940,4652.945,N,07105.224,W,1,12,1.0,0.0,M,0.0,M,,*7E
$GPGSA,A,3,01,02,03,04,05,06,07,08,09,10,11,12,1.0,1.0,1.0*30
$GPRMC,132423.940,A,4652.945,N,07105.224,W,038.9,125.6,300123,000.0,W*6B
$GPGGA,132424.940,4652.937,N,07105.213,W,1,12,1.0,0.0,M,0.0,M,,*78
$GPGSA,A,3,01,02,03,04,05,06,07,08,09,10,11,12,1.0,1.0,1.0*30
$GPRMC,132424.940,A,4652.937,N,07105.213,W,038.9,125.6,300123,000.0,W*6D
$GPGGA,132425.940,4652.929,N,07105.202,W,1,12,1.0,0.0,M,0.0,M,,*76
$GPGSA,A,3,01,02,03,04,05,06,07,08,09,10,11,12,1.0,1.0,1.0*30
$GPRMC,132425.940,A,4652.929,N,07105.202,W,038.9,125.6,300123,000.0,W*63
$GPGGA,132426.940,4652.922,N,07105.191,W,1,12,1.0,0.0,M,0.0,M,,*77
$GPGSA,A,3,01,02,03,04,05,06,07,08,09,10,11,12,1.0,1.0,1.0*30
$GPRMC,132426.940,A,4652.922,N,07105.191,W,038.9,125.6,300123,000.0,W*62
$GPGGA,132427.940,4652.914,N,07105.180,W,1,12,1.0,0.0,M,0.0,M,,*73
$GPGSA,A,3,01,02,03,04,05,06,07,08,09,10,11,12,1.0,1.0,1.0*30
$GPRMC,132427.940,A,4652.914,N,07105.180,W,038.9,125.6,300123,000.0,W*66
$GPGGA,132428.940,4652.906,N,07105.169,W,1,12,1.0,0.0,M,0.0,M,,*78
$GPGSA,A,3,01,02,03,04,05,06,07,08,09,10,11,12,1.0,1.0,1.0*30
$GPRMC,132428.940,A,4652.906,N,07105.169,W,038.9,125.6,300123,000.0,W*6D
$GPGGA,132429.940,4652.898,N,07105.158,W,1,12,1.0,0.0,M,0.0,M,,*7D
$GPGSA,A,3,01,02,03,04,05,06,07,08,09,10,11,12,1.0,1.0,1.0*30
$GPRMC,132429.940,A,4652.898,N,07105.158,W,038.9,125.6,300123,000.0,W*68
$GPGGA,132430.940,4652.891,N,07105.147,W,1,12,1.0,0.0,M,0.0,M,,*72
$GPGSA,A,3,01,02,03,04,05,06,07,08,09,10,11,12,1.0,1.0,1.0*30
$GPRMC,132430.940,A,4652.891,N,07105.147,W,038.9,125.6,300123,000.0,W*67
$GPGGA,132431.940,4652.883,N,07105.136,W,1,12,1.0,0.0,M,0.0,M,,*76
$GPGSA,A,3,01,02,03,04,05,06,07,08,09,10,11,12,1.0,1.0,1.0*30
$GPRMC,132431.940,A,4652.883,N,07105.136,W,038.9,125.6,300123,000.0,W*63
$GPGGA,132432.940,4652.875,N,07105.125,W,1,12,1.0,0.0,M,0.0,M,,*7E
$GPGSA,A,3,01,02,03,04,05,06,07,08,09,10,11,12,1.0,1.0,1.0*30
$GPRMC,132432.940,A,4652.875,N,07105.125,W,038.9,125.6,300123,000.0,W*6B
$GPGGA,132433.940,4652.867,N,07105.114,W,1,12,1.0,0.0,M,0.0,M,,*7E
$GPGSA,A,3,01,02,03,04,05,06,07,08,09,10,11,12,1.0,1.0,1.0*30
$GPRMC,132433.940,A,4652.867,N,07105.114,W,038.9,125.6,300123,000.0,W*6B
$GPGGA,132434.940,4652.859,N,07105.103,W,1,12,1.0,0.0,M,0.0,M,,*72
$GPGSA,A,3,01,02,03,04,05,06,07,08,09,10,11,12,1.0,1.0,1.0*30
$GPRMC,132434.940,A,4652.859,N,07105.103,W,038.9,125.6,300123,000.0,W*67
$GPGGA,132435.940,4652.852,N,07105.093,W,1,12,1.0,0.0,M,0.0,M,,*70
$GPGSA,A,3,01,02,03,04,05,06,07,08,09,10,11,12,1.0,1.0,1.0*30
$GPRMC,132435.940,A,4652.852,N,07105.093,W,038.9,125.6,300123,000.0,W*65
$GPGGA,132436.940,4652.844,N,07105.082,W,1,12,1.0,0.0,M,0.0,M,,*74
$GPGSA,A,3,01,02,03,04,05,06,07,08,09,10,11,12,1.0,1.0,1.0*30
$GPRMC,132436.940,A,4652.844,N,07105.082,W,038.9,125.6,300123,000.0,W*61
$GPGGA,132437.940,4652.836,N,07105.071,W,1,12,1.0,0.0,M,0.0,M,,*7C
$GPGSA,A,3,01,02,03,04,05,06,07,08,09,10,11,12,1.0,1.0,1.0*30
$GPRMC,132437.940,A,4652.836,N,07105.071,W,038.9,125.6,300123,000.0,W*69
$GPGGA,132438.940,4652.828,N,07105.060,W,1,12,1.0,0.0,M,0.0,M,,*7C
$GPGSA,A,3,01,02,03,04,05,06,07,08,09,10,11,12,1.0,1.0,1.0*30
$GPRMC,132438.940,A,4652.828,N,07105.060,W,038.9,125.6,300123,000.0,W*69
$GPGGA,132439.940,4652.820,N,07105.049,W,1,12,1.0,0.0,M,0.0,M,,*7E
$GPGSA,A,3,01,02,03,04,05,06,07,08,09,10,11,12,1.0,1.0,1.0*30
$GPRMC,132439.940,A,4652.820,N,07105.049,W,038.9,125.6,300123,000.0,W*6B
$GPGGA,132440.940,4652.813,N,07105.038,W,1,12,1.0,0.0,M,0.0,M,,*76
$GPGSA,A,3,01,02,03,04,05,06,07,08,09,10,11,12,1.0,1.0,1.0*30
$GPRMC,132440.940,A,4652.813,N,07105.038,W,038.9,125.6,300123,000.0,W*63
$GPGGA,132441.940,4652.805,N,07105.027,W,1,12,1.0,0.0,M,0.0,M,,*7E
$GPGSA,A,3,01,02,03,04,05,06,07,08,09,10,11,12,1.0,1.0,1.0*30
$GPRMC,132441.940,A,4652.805,N,07105.027,W,038.9,125.6,300123,000.0,W*6B
$GPGGA,132442.940,4652.797,N,07105.016,W,1,12,1.0,0.0,M,0.0,M,,*7B
$GPGSA,A,3,01,02,03,04,05,06,07,08,09,10,11,12,1.0,1.0,1.0*30
$GPRMC,132442.940,A,4652.797,N,07105.016,W,038.9,125.6,300123,000.0,W*6E
$GPGGA,132443.940,4652.789,N,07105.005,W,1,12,1.0,0.0,M,0.0,M,,*77
$GPGSA,A,3,01,02,03,04,05,06,07,08,09,10,11,12,1.0,1.0,1.0*30
$GPRMC,132443.940,A,4652.789,N,07105.005,W,038.9,125.6,300123,000.0,W*62
$GPGGA,132444.940,4652.781,N,07104.994,W,1,12,1.0,0.0,M,0.0,M,,*78
$GPGSA,A,3,01,02,03,04,05,06,07,08,09,10,11,12,1.0,1.0,1.0*30
$GPRMC,132444.940,A,4652.781,N,07104.994,W,038.9,125.6,300123,000.0,W*6D
$GPGGA,132445.940,4652.774,N,07104.983,W,1,12,1.0,0.0,M,0.0,M,,*75
$GPGSA,A,3,01,02,03,04,05,06,07,08,09,10,11,12,1.0,1.0,1.0*30
$GPRMC,132445.940,A,4652.774,N,07104.983,W,038.9,125.6,300123,000.0,W*60
$GPGGA,132446.940,4652.766,N,07104.972,W,1,12,1.0,0.0,M,0.0,M,,*7B
$GPGSA,A,3,01,02,03,04,05,06,07,08,09,10,11,12,1.0,1.0,1.0*30
$GPRMC,132446.940,A,4652.766,N,07104.972,W,038.9,125.6,300123,000.0,W*6E
$GPGGA,132447.940,4652.758,N,07104.961,W,1,12,1.0,0.0,M,0.0,M,,*75
$GPGSA,A,3,01,02,03,04,05,06,07,08,09,10,11,12,1.0,1.0,1.0*30
$GPRMC,132447.940,A,4652.758,N,07104.961,W,038.9,125.6,300123,000.0,W*60
$GPGGA,132448.940,4652.750,N,07104.950,W,1,12,1.0,0.0,M,0.0,M,,*70
$GPGSA,A,3,01,02,03,04,05,06,07,08,09,10,11,12,1.0,1.0,1.0*30
$GPRMC,132448.940,A,4652.750,N,07104.950,W,038.9,125.6,300123,000.0,W*65
$GPGGA,132449.940,4652.743,N,07104.940,W,1,12,1.0,0.0,M,0.0,M,,*72
$GPGSA,A,3,01,02,03,04,05,06,07,08,09,10,11,12,1.0,1.0,1.0*30
$GPRMC,132449.940,A,4652.743,N,07104.940,W,038.9,125.6,300123,000.0,W*67
$GPGGA,132450.940,4652.735,N,07104.929,W,1,12,1.0,0.0,M,0.0,M,,*74
$GPGSA,A,3,01,02,03,04,05,06,07,08,09,10,11,12,1.0,1.0,1.0*30
$GPRMC,132450.940,A,4652.735,N,07104.929,W,038.9,125.6,300123,000.0,W*61
$GPGGA,132451.940,4652.727,N,07104.918,W,1,12,1.0,0.0,M,0.0,M,,*74
$GPGSA,A,3,01,02,03,04,05,06,07,08,09,10,11,12,1.0,1.0,1.0*30
$GPRMC,132451.940,A,4652.727,N,07104.918,W,038.9,125.6,300123,000.0,W*61
$GPGGA,132452.940,4652.719,N,07104.907,W,1,12,1.0,0.0,M,0.0,M,,*74
$GPGSA,A,3,01,02,03,04,05,06,07,08,09,10,11,12,1.0,1.0,1.0*30
$GPRMC,132452.940,A,4652.719,N,07104.907,W,038.9,125.6,300123,000.0,W*61
$GPGGA,132453.940,4652.711,N,07104.896,W,1,12,1.0,0.0,M,0.0,M,,*74
$GPGSA,A,3,01,02,03,04,05,06,07,08,09,10,11,12,1.0,1.0,1.0*30
$GPRMC,132453.940,A,4652.711,N,07104.896,W,038.9,125.6,300123,000.0,W*61
$GPGGA,132454.940,4652.704,N,07104.885,W,1,12,1.0,0.0,M,0.0,M,,*75
$GPGSA,A,3,01,02,03,04,05,06,07,08,09,10,11,12,1.0,1.0,1.0*30
$GPRMC,132454.940,A,4652.704,N,07104.885,W,038.9,125.6,300123,000.0,W*60
$GPGGA,132455.940,4652.696,N,07104.874,W,1,12,1.0,0.0,M,0.0,M,,*70
$GPGSA,A,3,01,02,03,04,05,06,07,08,09,10,11,12,1.0,1.0,1.0*30
$GPRMC,132455.940,A,4652.696,N,07104.874,W,038.9,125.6,300123,000.0,W*65
$GPGGA,132456.940,4652.688,N,07104.863,W,1,12,1.0,0.0,M,0.0,M,,*7A
$GPGSA,A,3,01,02,03,04,05,06,07,08,09,10,11,12,1.0,1.0,1.0*30
$GPRMC,132456.940,A,4652.688,N,07104.863,W,038.9,125.6,300123,000.0,W*6F
$GPGGA,132457.940,4652.680,N,07104.852,W,1,12,1.0,0.0,M,0.0,M,,*71
$GPGSA,A,3,01,02,03,04,05,06,07,08,09,10,11,12,1.0,1.0,1.0*30
$GPRMC,132457.940,A,4652.680,N,07104.852,W,038.9,125.6,300123,000.0,W*64
$GPGGA,132458.940,4652.672,N,07104.841,W,1,12,1.0,0.0,M,0.0,M,,*71
$GPGSA,A,3,01,02,03,04,05,06,07,08,09,10,11,12,1.0,1.0,1.0*30
$GPRMC,132458.940,A,4652.672,N,07104.841,W,038.9,125.6,300123,000.0,W*64
$GPGGA,132459.940,4652.665,N,07104.830,W,1,12,1.0,0.0,M,0.0,M,,*70
$GPGSA,A,3,01,02,03,04,05,06,07,08,09,10,11,12,1.0,1.0,1.0*30
$GPRMC,132459.940,A,4652.665,N,07104.830,W,038.9,125.6,300123,000.0,W*65
$GPGGA,132500.940,4652.657,N,07104.819,W,1,12,1.0,0.0,M,0.0,M,,*77
$GPGSA,A,3,01,02,03,04,05,06,07,08,09,10,11,12,1.0,1.0,1.0*30
$GPRMC,132500.940,A,4652.657,N,07104.819,W,038.9,125.6,300123,000.0,W*62
$GPGGA,132501.940,4652.649,N,07104.808,W,1,12,1.0,0.0,M,0.0,M,,*79
$GPGSA,A,3,01,02,03,04,05,06,07,08,09,10,11,12,1.0,1.0,1.0*30
$GPRMC,132501.940,A,4652.649,N,07104.808,W,038.9,125.6,300123,000.0,W*6C
$GPGGA,132502.940,4652.641,N,07104.797,W,1,12,1.0,0.0,M,0.0,M,,*7B
$GPGSA,A,3,01,02,03,04,05,06,07,08,09,10,11,12,1.0,1.0,1.0*30
$GPRMC,132502.940,A,4652.641,N,07104.797,W,038.9,125.6,300123,000.0,W*6E
$GPGGA,132503.940,4652.634,N,07104.787,W,1,12,1.0,0.0,M,0.0,M,,*79
$GPGSA,A,3,01,02,03,04,05,06,07,08,09,10,11,12,1.0,1.0,1.0*30
$GPRMC,132503.940,A,4652.634,N,07104.787,W,038.9,125.6,300123,000.0,W*6C
$GPGGA,132504.940,4652.626,N,07104.776,W,1,12,1.0,0.0,M,0.0,M,,*73
$GPGSA,A,3,01,02,03,04,05,06,07,08,09,10,11,12,1.0,1.0,1.0*30
$GPRMC,132504.940,A,4652.626,N,07104.776,W,038.9,125.6,300123,000.0,W*66
$GPGGA,132505.940,4652.618,N,07104.765,W,1,12,1.0,0.0,M,0.0,M,,*7D
$GPGSA,A,3,01,02,03,04,05,06,07,08,09,10,11,12,1.0,1.0,1.0*30
$GPRMC,132505.940,A,4652.618,N,07104.765,W,038.9,125.6,300123,000.0,W*68
$GPGGA,132506.940,4652.610,N,07104.754,W,1,12,1.0,0.0,M,0.0,M,,*74
$GPGSA,A,3,01,02,03,04,05,06,07,08,09,10,11,12,1.0,1.0,1.0*30
$GPRMC,132506.940,A,4652.610,N,07104.754,W,038.9,125.6,300123,000.0,W*61
$GPGGA,132507.940,4652.602,N,07104.743,W,1,12,1.0,0.0,M,0.0,M,,*70
$GPGSA,A,3,01,02,03,04,05,06,07,08,09,10,11,12,1.0,1.0,1.0*30
$GPRMC,132507.940,A,4652.602,N,07104.743,W,038.9,125.6,300123,000.0,W*65
$GPGGA,132508.940,4652.595,N,07104.732,W,1,12,1.0,0.0,M,0.0,M,,*74
$GPGSA,A,3,01,02,03,04,05,06,07,08,09,10,11,12,1.0,1.0,1.0*30
$GPRMC,132508.940,A,4652.595,N,07104.732,W,038.9,125.6,300123,000.0,W*61
$GPGGA,132509.940,4652.587,N,07104.721,W,1,12,1.0,0.0,M,0.0,M,,*74
$GPGSA,A,3,01,02,03,04,05,06,07,08,09,10,11,12,1.0,1.0,1.0*30
$GPRMC,132509.940,A,4652.587,N,07104.721,W,038.9,125.6,300123,000.0,W*61
$GPGGA,132510.940,4652.579,N,07104.710,W,1,12,1.0,0.0,M,0.0,M,,*7F
$GPGSA,A,3,01,02,03,04,05,06,07,08,09,10,11,12,1.0,1.0,1.0*30
$GPRMC,132510.940,A,4652.579,N,07104.710,W,038.9,125.6,300123,000.0,W*6A
$GPGGA,132511.940,4652.571,N,07104.699,W,1,12,1.0,0.0,M,0.0,M,,*76
$GPGSA,A,3,01,02,03,04,05,06,07,08,09,10,11,12,1.0,1.0,1.0*30
$GPRMC,132511.940,A,4652.571,N,07104.699,W,038.9,125.6,300123,000.0,W*63
$GPGGA,132512.940,4652.563,N,07104.688,W,1,12,1.0,0.0,M,0.0,M,,*76
$GPGSA,A,3,01,02,03,04,05,06,07,08,09,10,11,12,1.0,1.0,1.0*30
$GPRMC,132512.940,A,4652.563,N,07104.688,W,038.9,125.6,300123,000.0,W*63
$GPGGA,132513.940,4652.556,N,07104.677,W,1,12,1.0,0.0,M,0.0,M,,*71
$GPGSA,A,3,01,02,03,04,05,06,07,08,09,10,11,12,1.0,1.0,1.0*30
$GPRMC,132513.940,A,4652.556,N,07104.677,W,038.9,125.6,300123,000.0,W*64
$GPGGA,132514.940,4652.548,N,07104.666,W,1,12,1.0,0.0,M,0.0,M,,*79
$GPGSA,A,3,01,02,03,04,05,06,07,08,09,10,11,12,1.0,1.0,1.0*30
$GPRMC,132514.940,A,4652.548,N,07104.666,W,038.9,125.6,300123,000.0,W*6C
$GPGGA,132515.940,4652.540,N,07104.655,W,1,12,1.0,0.0,M,0.0,M,,*70
$GPGSA,A,3,01,02,03,04,05,06,07,08,09,10,11,12,1.0,1.0,1.0*30
$GPRMC,132515.940,A,4652.540,N,07104.655,W,038.9,125.6,300123,000.0,W*65
$GPGGA,132516.940,4652.532,N,07104.644,W,1,12,1.0,0.0,M,0.0,M,,*76
$GPGSA,A,3,01,02,03,04,05,06,07,08,09,10,11,12,1.0,1.0,1.0*30
$GPRMC,132516.940,A,4652.532,N,07104.644,W,038.9,125.6,300123,000.0,W*63
$GPGGA,132517.940,4652.524,N,07104.634,W,1,12,1.0,0.0,M,0.0,M,,*77
$GPGSA,A,3,01,02,03,04,05,06,07,08,09,10,11,12,1.0,1.0,1.0*30
$GPRMC,132517.940,A,4652.524,N,07104.634,W,038.9,125.6,300123,000.0,W*62
$GPGGA,132518.940,4652.517,N,07104.623,W,1,12,1.0,0.0,M,0.0,M,,*7E
$GPGSA,A,3,01,02,03,04,05,06,07,08,09,10,11,12,1.0,1.0,1.0*30
$GPRMC,132518.940,A,4652.517,N,07104.623,W,038.9,125.6,300123,000.0,W*6B
$GPGGA,132519.940,4652.509,N,07104.612,W,1,12,1.0,0.0,M,0.0,M,,*72
$GPGSA,A,3,01,02,03,04,05,06,07,08,09,10,11,12,1.0,1.0,1.0*30
$GPRMC,132519.940,A,4652.509,N,07104.612,W,038.9,125.6,300123,000.0,W*67
$GPGGA,132520.940,4652.501,N,07104.601,W,1,12,1.0,0.0,M,0.0,M,,*72
$GPGSA,A,3,01,02,03,04,05,06,07,08,09,10,11,12,1.0,1.0,1.0*30
$GPRMC,132520.940,A,4652.501,N,07104.601,W,038.9,125.6,300123,000.0,W*67
$GPGGA,132521.940,4652.493,N,07104.590,W,1,12,1.0,0.0,M,0.0,M,,*72
$GPGSA,A,3,01,02,03,04,05,06,07,08,09,10,11,12,1.0,1.0,1.0*30
$GPRMC,132521.940,A,4652.493,N,07104.590,W,038.9,125.6,300123,000.0,W*67
$GPGGA,132522.940,4652.486,N,07104.579,W,1,12,1.0,0.0,M,0.0,M,,*72
$GPGSA,A,3,01,02,03,04,05,06,07,08,09,10,11,12,1.0,1.0,1.0*30
$GPRMC,132522.940,A,4652.486,N,07104.579,W,038.9,125.6,300123,000.0,W*67
$GPGGA,132523.940,4652.478,N,07104.568,W,1,12,1.0,0.0,M,0.0,M,,*72
$GPGSA,A,3,01,02,03,04,05,06,07,08,09,10,11,12,1.0,1.0,1.0*30
$GPRMC,132523.940,A,4652.478,N,07104.568,W,038.9,125.6,300123,000.0,W*67
$GPGGA,132524.940,4652.470,N,07104.557,W,1,12,1.0,0.0,M,0.0,M,,*71
$GPGSA,A,3,01,02,03,04,05,06,07,08,09,10,11,12,1.0,1.0,1.0*30
$GPRMC,132524.940,A,4652.470,N,07104.557,W,038.9,125.6,300123,000.0,W*64
$GPGGA,132525.940,4652.462,N,07104.546,W,1,12,1.0,0.0,M,0.0,M,,*73
$GPGSA,A,3,01,02,03,04,05,06,07,08,09,10,11,12,1.0,1.0,1.0*30
$GPRMC,132525.940,A,4652.462,N,07104.546,W,038.9,125.6,300123,000.0,W*66
$GPGGA,132526.940,4652.454,N,07104.535,W,1,12,1.0,0.0,M,0.0,M,,*71
$GPGSA,A,3,01,02,03,04,05,06,07,08,09,10,11,12,1.0,1.0,1.0*30
$GPRMC,132526.940,A,4652.454,N,07104.535,W,038.9,125.6,300123,000.0,W*64
$GPGGA,132527.940,4652.447,N,07104.524,W,1,12,1.0,0.0,M,0.0,M,,*72
$GPGSA,A,3,01,02,03,04,05,06,07,08,09,10,11,12,1.0,1.0,1.0*30
$GPRMC,132527.940,A,4652.447,N,07104.524,W,038.9,125.6,300123,000.0,W*67
$GPGGA,132528.940,4652.439,N,07104.513,W,1,12,1.0,0.0,M,0.0,M,,*70
$GPGSA,A,3,01,02,03,04,05,06,07,08,09,10,11,12,1.0,1.0,1.0*30
$GPRMC,132528.940,A,4652.439,N,07104.513,W,038.9,125.6,300123,000.0,W*65
$GPGGA,132529.940,4652.431,N,07104.502,W,1,12,1.0,0.0,M,0.0,M,,*79
$GPGSA,A,3,01,02,03,04,05,06,07,08,09,10,11,12,1.0,1.0,1.0*30
$GPRMC,132529.940,A,4652.431,N,07104.502,W,038.9,125.6,300123,000.0,W*6C
$GPGGA,132530.940,4652.423,N,07104.492,W,1,12,1.0,0.0,M,0.0,M,,*7A
$GPGSA,A,3,01,02,03,04,05,06,07,08,09,10,11,12,1.0,1.0,1.0*30
$GPRMC,132530.940,A,4652.423,N,07104.492,W,038.9,125.6,300123,000.0,W*6F
$GPGGA,132531.940,4652.415,N,07104.481,W,1,12,1.0,0.0,M,0.0,M,,*7C
$GPGSA,A,3,01,02,03,04,05,06,07,08,09,10,11,12,1.0,1.0,1.0*30
$GPRMC,132531.940,A,4652.415,N,07104.481,W,038.9,125.6,300123,000.0,W*69
$GPGGA,132532.940,4652.408,N,07104.470,W,1,12,1.0,0.0,M,0.0,M,,*7D
$GPGSA,A,3,01,02,03,04,05,06,07,08,09,10,11,12,1.0,1.0,1.0*30
$GPRMC,132532.940,A,4652.408,N,07104.470,W,038.9,125.6,300123,000.0,W*68
$GPGGA,132533.940,4652.400,N,07104.459,W,1,12,1.0,0.0,M,0.0,M,,*7F
$GPGSA,A,3,01,02,03,04,05,06,07,08,09,10,11,12,1.0,1.0,1.0*30
$GPRMC,132533.940,A,4652.400,N,07104.459,W,038.9,125.6,300123,000.0,W*6A
$GPGGA,132534.940,4652.392,N,07104.448,W,1,12,1.0,0.0,M,0.0,M,,*74
$GPGSA,A,3,01,02,03,04,05,06,07,08,09,10,11,12,1.0,1.0,1.0*30
$GPRMC,132534.940,A,4652.392,N,07104.448,W,038.9,125.6,300123,000.0,W*61
$GPGGA,132535.940,4652.384,N,07104.437,W,1,12,1.0,0.0,M,0.0,M,,*7A
$GPGSA,A,3,01,02,03,04,05,06,07,08,09,10,11,12,1.0,1.0,1.0*30
$GPRMC,132535.940,A,4652.384,N,07104.437,W,038.9,125.6,300123,000.0,W*6F
$GPGGA,132536.940,4652.377,N,07104.426,W,1,12,1.0,0.0,M,0.0,M,,*75
$GPGSA,A,3,01,02,03,04,05,06,07,08,09,10,11,12,1.0,1.0,1.0*30
$GPRMC,132536.940,A,4652.377,N,07104.426,W,038.9,125.6,300123,000.0,W*60
$GPGGA,132537.940,4652.369,N,07104.415,W,1,12,1.0,0.0,M,0.0,M,,*7B
$GPGSA,A,3,01,02,03,04,05,06,07,08,09,10,11,12,1.0,1.0,1.0*30
$GPRMC,132537.940,A,4652.369,N,07104.415,W,038.9,125.6,300123,000.0,W*6E
$GPGGA,132538.940,4652.361,N,07104.404,W,1,12,1.0,0.0,M,0.0,M,,*7C
$GPGSA,A,3,01,02,03,04,05,06,07,08,09,10,11,12,1.0,1.0,1.0*30
$GPRMC,132538.940,A,4652.361,N,07104.404,W,038.9,125.6,300123,000.0,W*69
$GPGGA,132539.940,4652.353,N,07104.393,W,1,12,1.0,0.0,M,0.0,M,,*75
$GPGSA,A,3,01,02,03,04,05,06,07,08,09,10,11,12,1.0,1.0,1.0*30
$GPRMC,132539.940,A,4652.353,N,07104.393,W,038.9,125.6,300123,000.0,W*60
$GPGGA,132540.940,4652.345,N,07104.382,W,1,12,1.0,0.0,M,0.0,M,,*7C
$GPGSA,A,3,01,02,03,04,05,06,07,08,09,10,11,12,1.0,1.0,1.0*30
$GPRMC,132540.940,A,4652.345,N,07104.382,W,038.9,125.6,300123,000.0,W*69
$GPGGA,132541.940,4652.338,N,07104.371,W,1,12,1.0,0.0,M,0.0,M,,*7B
$GPGSA,A,3,01,02,03,04,05,06,07,08,09,10,11,12,1.0,1.0,1.0*30
$GPRMC,132541.940,A,4652.338,N,07104.371,W,038.9,125.6,300123,000.0,W*6E
$GPGGA,132542.940,4652.330,N,07104.360,W,1,12,1.0,0.0,M,0.0,M,,*70
$GPGSA,A,3,01,02,03,04,05,06,07,08,09,10,11,12,1.0,1.0,1.0*30
$GPRMC,132542.940,A,4652.330,N,07104.360,W,038.9,125.6,300123,000.0,W*65
$GPGGA,132543.940,4652.322,N,07104.349,W,1,12,1.0,0.0,M,0.0,M,,*79
$GPGSA,A,3,01,02,03,04,05,06,07,08,09,10,11,12,1.0,1.0,1.0*30
$GPRMC,132543.940,A,4652.322,N,07104.349,W,038.9,125.6,300123,000.0,W*6C
$GPGGA,132544.940,4652.314,N,07104.339,W,1,12,1.0,0.0,M,0.0,M,,*7C
$GPGSA,A,3,01,02,03,04,05,06,07,08,09,10,11,12,1.0,1.0,1.0*30
$GPRMC,132544.940,A,4652.314,N,07104.339,W,038.9,125.6,300123,000.0,W*69
$GPGGA,132545.940,4652.306,N,07104.328,W,1,12,1.0,0.0,M,0.0,M,,*7E
$GPGSA,A,3,01,02,03,04,05,06,07,08,09,10,11,12,1.0,1.0,1.0*30
$GPRMC,132545.940,A,4652.306,N,07104.328,W,038.9,125.6,300123,000.0,W*6B
$GPGGA,132546.940,4652.299,N,07104.317,W,1,12,1.0,0.0,M,0.0,M,,*76
$GPGSA,A,3,01,02,03,04,05,06,07,08,09,10,11,12,1.0,1.0,1.0*30
$GPRMC,132546.940,A,4652.299,N,07104.317,W,038.9,125.6,300123,000.0,W*63
$GPGGA,132547.940,4652.291,N,07104.306,W,1,12,1.0,0.0,M,0.0,M,,*7F
$GPGSA,A,3,01,02,03,04,05,06,07,08,09,10,11,12,1.0,1.0,1.0*30
$GPRMC,132547.940,A,4652.291,N,07104.306,W,038.9,125.6,300123,000.0,W*6A
$GPGGA,132548.940,4652.283,N,07104.295,W,1,12,1.0,0.0,M,0.0,M,,*78
$GPGSA,A,3,01,02,03,04,05,06,07,08,09,10,11,12,1.0,1.0,1.0*30
$GPRMC,132548.940,A,4652.283,N,07104.295,W,038.9,125.6,300123,000.0,W*6D
$GPGGA,132549.940,4652.275,N,07104.284,W,1,12,1.0,0.0,M,0.0,M,,*70
$GPGSA,A,3,01,02,03,04,05,06,07,08,09,10,11,12,1.0,1.0,1.0*30
$GPRMC,132549.940,A,4652.275,N,07104.284,W,038.9,125.6,300123,000.0,W*65
$GPGGA,132550.940,4652.267,N,07104.273,W,1,12,1.0,0.0,M,0.0,M,,*73
$GPGSA,A,3,01,02,03,04,05,06,07,08,09,10,11,12,1.0,1.0,1.0*30
$GPRMC,132550.940,A,4652.267,N,07104.273,W,038.9,125.6,300123,000.0,W*66
$GPGGA,132551.940,4652.260,N,07104.262,W,1,12,1.0,0.0,M,0.0,M,,*75
$GPGSA,A,3,01,02,03,04,05,06,07,08,09,10,11,12,1.0,1.0,1.0*30
$GPRMC,132551.940,A,4652.260,N,07104.262,W,038.9,125.6,300123,000.0,W*60
$GPGGA,132552.940,4652.252,N,07104.251,W,1,12,1.0,0.0,M,0.0,M,,*77
$GPGSA,A,3,01,02,03,04,05,06,07,08,09,10,11,12,1.0,1.0,1.0*30
$GPRMC,132552.940,A,4652.252,N,07104.251,W,038.9,125.6,300123,000.0,W*62
$GPGGA,132553.940,4652.244,N,07104.240,W,1,12,1.0,0.0,M,0.0,M,,*71
$GPGSA,A,3,01,02,03,04,05,06,07,08,09,10,11,12,1.0,1.0,1.0*30
$GPRMC,132553.940,A,4652.244,N,07104.240,W,038.9,125.6,300123,000.0,W*64
$GPGGA,132554.940,4652.236,N,07104.229,W,1,12,1.0,0.0,M,0.0,M,,*7C
$GPGSA,A,3,01,02,03,04,05,06,07,08,09,10,11,12,1.0,1.0,1.0*30
$GPRMC,132554.940,A,4652.236,N,07104.229,W,038.9,125.6,300123,000.0,W*69
$GPGGA,132555.940,4652.229,N,07104.218,W,1,12,1.0,0.0,M,0.0,M,,*71
$GPGSA,A,3,01,02,03,04,05,06,07,08,09,10,11,12,1.0,1.0,1.0*30
$GPRMC,132555.940,A,4652.229,N,07104.218,W,038.9,125.6,300123,000.0,W*64
$GPGGA,132556.940,4652.221,N,07104.207,W,1,12,1.0,0.0,M,0.0,M,,*74
$GPGSA,A,3,01,02,03,04,05,06,07,08,09,10,11,12,1.0,1.0,1.0*30
$GPRMC,132556.940,A,4652.221,N,07104.207,W,038.9,125.6,300123,000.0,W*61
$GPGGA,132557.940,4652.213,N,07104.196,W,1,12,1.0,0.0,M,0.0,M,,*7F
$GPGSA,A,3,01,02,03,04,05,06,07,08,09,10,11,12,1.0,1.0,1.0*30
$GPRMC,132557.940,A,4652.213,N,07104.196,W,038.9,125.6,300123,000.0,W*6A
$GPGGA,132558.940,4652.205,N,07104.186,W,1,12,1.0,0.0,M,0.0,M,,*76
$GPGSA,A,3,01,02,03,04,05,06,07,08,09,10,11,12,1.0,1.0,1.0*30
$GPRMC,132558.940,A,4652.205,N,07104.186,W,038.9,125.6,300123,000.0,W*63
$GPGGA,132559.940,4652.197,N,07104.175,W,1,12,1.0,0.0,M,0.0,M,,*73
$GPGSA,A,3,01,02,03,04,05,06,07,08,09,10,11,12,1.0,1.0,1.0*30
$GPRMC,132559.940,A,4652.197,N,07104.175,W,038.9,125.6,300123,000.0,W*66
$GPGGA,132600.940,4652.190,N,07104.164,W,1,12,1.0,0.0,M,0.0,M,,*7B
$GPGSA,A,3,01,02,03,04,05,06,07,08,09,10,11,12,1.0,1.0,1.0*30
$GPRMC,132600.940,A,4652.190,N,07104.164,W,038.9,125.6,300123,000.0,W*6E
$GPGGA,132601.940,4652.182,N,07104.153,W,1,12,1.0,0.0,M,0.0,M,,*7D
$GPGSA,A,3,01,02,03,04,05,06,07,08,09,10,11,12,1.0,1.0,1.0*30
$GPRMC,132601.940,A,4652.182,N,07104.153,W,038.9,125.6,300123,000.0,W*68
$GPGGA,132602.940,4652.174,N,07104.142,W,1,12,1.0,0.0,M,0.0,M,,*77
$GPGSA,A,3,01,02,03,04,05,06,07,08,09,10,11,12,1.0,1.0,1.0*30
$GPRMC,132602.940,A,4652.174,N,07104.142,W,038.9,125.6,300123,000.0,W*62
$GPGGA,132603.940,4652.166,N,07104.131,W,1,12,1.0,0.0,M,0.0,M,,*71
$GPGSA,A,3,01,02,03,04,05,06,07,08,09,10,11,12,1.0,1.0,1.0*30
$GPRMC,132603.940,A,4652.166,N,07104.131,W,038.9,125.6,300123,000.0,W*64
$GPGGA,132604.940,4652.158,N,07104.120,W,1,12,1.0,0.0,M,0.0,M,,*7B
$GPGSA,A,3,01,02,03,04,05,06,07,08,09,10,11,12,1.0,1.0,1.0*30
$GPRMC,132604.940,A,4652.158,N,07104.120,W,038.9,125.6,300123,000.0,W*6E
$GPGGA,132605.940,4652.151,N,07104.109,W,1,12,1.0,0.0,M,0.0,M,,*78
$GPGSA,A,3,01,02,03,04,05,06,07,08,09,10,11,12,1.0,1.0,1.0*30
$GPRMC,132605.940,A,4652.151,N,07104.109,W,038.9,125.6,300123,000.0,W*6D
$GPGGA,132606.940,4652.143,N,07104.098,W,1,12,1.0,0.0,M,0.0,M,,*71
$GPGSA,A,3,01,02,03,04,05,06,07,08,09,10,11,12,1.0,1.0,1.0*30
$GPRMC,132606.940,A,4652.143,N,07104.098,W,038.9,125.6,300123,000.0,W*64
$GPGGA,132607.940,4652.135,N,07104.087,W,1,12,1.0,0.0,M,0.0,M,,*7F
$GPGSA,A,3,01,02,03,04,05,06,07,08,09,10,11,12,1.0,1.0,1.0*30
$GPRMC,132607.940,A,4652.135,N,07104.087,W,038.9,125.6,300123,000.0,W*6A
$GPGGA,132608.940,4652.127,N,07104.076,W,1,12,1.0,0.0,M,0.0,M,,*7D
$GPGSA,A,3,01,02,03,04,05,06,07,08,09,10,11,12,1.0,1.0,1.0*30
$GPRMC,132608.940,A,4652.127,N,07104.076,W,038.9,125.6,300123,000.0,W*68
$GPGGA,132609.940,4652.120,N,07104.065,W,1,12,1.0,0.0,M,0.0,M,,*79
$GPGSA,A,3,01,02,03,04,05,06,07,08,09,10,11,12,1.0,1.0,1.0*30
$GPRMC,132609.940,A,4652.120,N,07104.065,W,038.9,125.6,300123,000.0,W*6C
$GPGGA,132610.940,4652.112,N,07104.054,W,1,12,1.0,0.0,M,0.0,M,,*72
$GPGSA,A,3,01,02,03,04,05,06,07,08,09,10,11,12,1.0,1.0,1.0*30
$GPRMC,132610.940,A,4652.112,N,07104.054,W,038.9,125.6,300123,000.0,W*67
$GPGGA,132611.940,4652.104,N,07104.043,W,1,12,1.0,0.0,M,0.0,M,,*72
$GPGSA,A,3,01,02,03,04,05,06,07,08,09,10,11,12,1.0,1.0,1.0*30
$GPRMC,132611.940,A,4652.104,N,07104.043,W,038.9,125.6,300123,000.0,W*67
$GPGGA,132612.940,4652.096,N,07104.033,W,1,12,1.0,0.0,M,0.0,M,,*7C
$GPGSA,A,3,01,02,03,04,05,06,07,08,09,10,11,12,1.0,1.0,1.0*30
$GPRMC,132612.940,A,4652.096,N,07104.033,W,038.9,125.6,300123,000.0,W*69
$GPGGA,132613.940,4652.088,N,07104.022,W,1,12,1.0,0.0,M,0.0,M,,*72
$GPGSA,A,3,01,02,03,04,05,06,07,08,09,10,11,12,1.0,1.0,1.0*30
$GPRMC,132613.940,A,4652.088,N,07104.022,W,038.9,125.6,300123,000.0,W*67
$GPGGA,132614.940,4652.081,N,07104.011,W,1,12,1.0,0.0,M,0.0,M,,*7C
$GPGSA,A,3,01,02,03,04,05,06,07,08,09,10,11,12,1.0,1.0,1.0*30
$GPRMC,132614.940,A,4652.081,N,07104.011,W,038.9,125.6,300123,000.0,W*69
$GPGGA,132615.940,4652.073,N,07104.000,W,1,12,1.0,0.0,M,0.0,M,,*70
$GPGSA,A,3,01,02,03,04,05,06,07,08,09,10,11,12,1.0,1.0,1.0*30
$GPRMC,132615.940,A,4652.073,N,07104.000,W,038.9,125.6,300123,000.0,W*65
$GPGGA,132616.940,4652.065,N,07103.989,W,1,12,1.0,0.0,M,0.0,M,,*7B
$GPGSA,A,3,01,02,03,04,05,06,07,08,09,10,11,12,1.0,1.0,1.0*30
$GPRMC,132616.940,A,4652.065,N,07103.989,W,038.9,125.6,300123,000.0,W*6E
$GPGGA,132617.940,4652.057,N,07103.978,W,1,12,1.0,0.0,M,0.0,M,,*75
$GPGSA,A,3,01,02,03,04,05,06,07,08,09,10,11,12,1.0,1.0,1.0*30
$GPRMC,132617.940,A,4652.057,N,07103.978,W,038.9,125.6,300123,000.0,W*60
$GPGGA,132618.940,4652.049,N,07103.967,W,1,12,1.0,0.0,M,0.0,M,,*7B
$GPGSA,A,3,01,02,03,04,05,06,07,08,09,10,11,12,1.0,1.0,1.0*30
$GPRMC,132618.940,A,4652.049,N,07103.967,W,038.9,125.6,300123,000.0,W*6E
$GPGGA,132619.940,4652.042,N,07103.956,W,1,12,1.0,0.0,M,0.0,M,,*73
$GPGSA,A,3,01,02,03,04,05,06,07,08,09,10,11,12,1.0,1.0,1.0*30
$GPRMC,132619.940,A,4652.042,N,07103.956,W,038.9,125.6,300123,000.0,W*66
$GPGGA,132620.940,4652.034,N,07103.945,W,1,12,1.0,0.0,M,0.0,M,,*7A
$GPGSA,A,3,01,02,03,04,05,06,07,08,09,10,11,12,1.0,1.0,1.0*30
$GPRMC,132620.940,A,4652.034,N,07103.945,W,038.9,125.6,300123,000.0,W*6F
$GPGGA,132621.940,4652.026,N,07103.934,W,1,12,1.0,0.0,M,0.0,M,,*7E
$GPGSA,A,3,01,02,03,04,05,06,07,08,09,10,11,12,1.0,1.0,1.0*30
$GPRMC,132621.940,A,4652.026,N,07103.934,W,038.9,125.6,300123,000.0,W*6B
$GPGGA,132622.940,4652.018,N,07103.923,W,1,12,1.0,0.0,M,0.0,M,,*76
$GPGSA,A,3,01,02,03,04,05,06,07,08,09,10,11,12,1.0,1.0,1.0*30
$GPRMC,132622.940,A,4652.018,N,07103.923,W,038.9,125.6,300123,000.0,W*63
$GPGGA,132623.940,4652.010,N,07103.912,W,1,12,1.0,0.0,M,0.0,M,,*7D
$GPGSA,A,3,01,02,03,04,05,06,07,08,09,10,11,12,1.0,1.0,1.0*30
$GPRMC,132623.940,A,4652.010,N,07103.912,W,038.9,125.6,300123,000.0,W*68
$GPGGA,132624.940,4652.003,N,07103.901,W,1,12,1.0,0.0,M,0.0,M,,*7A
$GPGSA,A,3,01,02,03,04,05,06,07,08,09,10,11,12,1.0,1.0,1.0*30
$GPRMC,132624.940,A,4652.003,N,07103.901,W,038.9,125.6,300123,000.0,W*6F
$GPGGA,132625.940,4651.995,N,07103.890,W,1,12,1.0,0.0,M,0.0,M,,*77
$GPGSA,A,3,01,02,03,04,05,06,07,08,09,10,11,12,1.0,1.0,1.0*30
$GPRMC,132625.940,A,4651.995,N,07103.890,W,038.9,125.6,300123,000.0,W*62
$GPGGA,132626.940,4651.987,N,07103.880,W,1,12,1.0,0.0,M,0.0,M,,*76
$GPGSA,A,3,01,02,03,04,05,06,07,08,09,10,11,12,1.0,1.0,1.0*30
$GPRMC,132626.940,A,4651.987,N,07103.880,W,038.9,125.6,300123,000.0,W*63
$GPGGA,132627.940,4651.979,N,07103.869,W,1,12,1.0,0.0,M,0.0,M,,*71
$GPGSA,A,3,01,02,03,04,05,06,07,08,09,10,11,12,1.0,1.0,1.0*30
$GPRMC,132627.940,A,4651.979,N,07103.869,W,038.9,125.6,300123,000.0,W*64
$GPGGA,132628.940,4651.972,N,07103.858,W,1,12,1.0,0.0,M,0.0,M,,*77
$GPGSA,A,3,01,02,03,04,05,06,07,08,09,10,11,12,1.0,1.0,1.0*30
$GPRMC,132628.940,A,4651.972,N,07103.858,W,038.9,125.6,300123,000.0,W*62
$GPGGA,132629.940,4651.964,N,07103.847,W,1,12,1.0,0.0,M,0.0,M,,*7F
$GPGSA,A,3,01,02,03,04,05,06,07,08,09,10,11,12,1.0,1.0,1.0*30
$GPRMC,132629.940,A,4651.964,N,07103.847,W,038.9,125.6,300123,000.0,W*6A
$GPGGA,132630.940,4651.956,N,07103.836,W,1,12,1.0,0.0,M,0.0,M,,*70
$GPGSA,A,3,01,02,03,04,05,06,07,08,09,10,11,12,1.0,1.0,1.0*30
$GPRMC,132630.940,A,4651.956,N,07103.836,W,038.9,125.6,300123,000.0,W*65
$GPGGA,132631.940,4651.948,N,07103.825,W,1,12,1.0,0.0,M,0.0,M,,*7C
$GPGSA,A,3,01,02,03,04,05,06,07,08,09,10,11,12,1.0,1.0,1.0*30
$GPRMC,132631.940,A,4651.948,N,07103.825,W,038.9,125.6,300123,000.0,W*69
$GPGGA,132632.940,4651.940,N,07103.814,W,1,12,1.0,0.0,M,0.0,M,,*75
$GPGSA,A,3,01,02,03,04,05,06,07,08,09,10,11,12,1.0,1.0,1.0*30
$GPRMC,132632.940,A,4651.940,N,07103.814,W,038.9,125.6,300123,000.0,W*60
$GPGGA,132633.940,4651.933,N,07103.803,W,1,12,1.0,0.0,M,0.0,M,,*76
$GPGSA,A,3,01,02,03,04,05,06,07,08,09,10,11,12,1.0,1.0,1.0*30
$GPRMC,132633.940,A,4651.933,N,07103.803,W,038.9,125.6,300123,000.0,W*63
$GPGGA,132634.940,4651.925,N,07103.792,W,1,12,1.0,0.0,M,0.0,M,,*71
$GPGSA,A,3,01,02,03,04,05,06,07,08,09,10,11,12,1.0,1.0,1.0*30
$GPRMC,132634.940,A,4651.925,N,07103.792,W,038.9,125.6,300123,000.0,W*64
$GPGGA,132635.940,4651.917,N,07103.781,W,1,12,1.0,0.0,M,0.0,M,,*73
$GPGSA,A,3,01,02,03,04,05,06,07,08,09,10,11,12,1.0,1.0,1.0*30
$GPRMC,132635.940,A,4651.917,N,07103.781,W,038.9,125.6,300123,000.0,W*66
$GPGGA,132636.940,4651.909,N,07103.770,W,1,12,1.0,0.0,M,0.0,M,,*71
$GPGSA,A,3,01,02,03,04,05,06,07,08,09,10,11,12,1.0,1.0,1.0*30
$GPRMC,132636.940,A,4651.909,N,07103.770,W,038.9,125.6,300123,000.0,W*64
$GPGGA,132637.940,4651.901,N,07103.759,W,1,12,1.0,0.0,M,0.0,M,,*73
$GPGSA,A,3,01,02,03,04,05,06,07,08,09,10,11,12,1.0,1.0,1.0*30
$GPRMC,132637.940,A,4651.901,N,07103.759,W,038.9,125.6,300123,000.0,W*66
$GPGGA,132638.940,4651.894,N,07103.748,W,1,12,1.0,0.0,M,0.0,M,,*71
$GPGSA,A,3,01,02,03,04,05,06,07,08,09,10,11,12,1.0,1.0,1.0*30
$GPRMC,132638.940,A,4651.894,N,07103.748,W,038.9,125.6,300123,000.0,W*64
$GPGGA,132639.940,4651.886,N,07103.737,W,1,12,1.0,0.0,M,0.0,M,,*7B
$GPGSA,A,3,01,02,03,04,05,06,07,08,09,10,11,12,1.0,1.0,1.0*30
$GPRMC,132639.940,A,4651.886,N,07103.737,W,038.9,125.6,300123,000.0,W*6E
$GPGGA,132640.940,4651.878,N,07103.727,W,1,12,1.0,0.0,M,0.0,M,,*75
$GPGSA,A,3,01,02,03,04,05,06,07,08,09,10,11,12,1.0,1.0,1.0*30
$GPRMC,132640.940,A,4651.878,N,07103.727,W,038.9,125.6,300123,000.0,W*60
$GPGGA,132641.940,4651.870,N,07103.716,W,1,12,1.0,0.0,M,0.0,M,,*7E
$GPGSA,A,3,01,02,03,04,05,06,07,08,09,10,11,12,1.0,1.0,1.0*30
$GPRMC,132641.940,A,4651.870,N,07103.716,W,038.9,125.6,300123,000.0,W*6B
$GPGGA,132642.940,4651.863,N,07103.705,W,1,12,1.0,0.0,M,0.0,M,,*7D
$GPGSA,A,3,01,02,03,04,05,06,07,08,09,10,11,12,1.0,1.0,1.0*30
$GPRMC,132642.940,A,4651.863,N,07103.705,W,038.9,125.6,300123,000.0,W*68
$GPGGA,132643.940,4651.855,N,07103.694,W,1,12,1.0,0.0,M,0.0,M,,*70
$GPGSA,A,3,01,02,03,04,05,06,07,08,09,10,11,12,1.0,1.0,1.0*30
$GPRMC,132643.940,A,4651.855,N,07103.694,W,038.9,125.6,300123,000.0,W*65
$GPGGA,132644.940,4651.847,N,07103.683,W,1,12,1.0,0.0,M,0.0,M,,*72
$GPGSA,A,3,01,02,03,04,05,06,07,08,09,10,11,12,1.0,1.0,1.0*30
$GPRMC,132644.940,A,4651.847,N,07103.683,W,038.9,125.6,300123,000.0,W*67
$GPGGA,132645.940,4651.839,N,07103.672,W,1,12,1.0,0.0,M,0.0,M,,*74
$GPGSA,A,3,01,02,03,04,05,06,07,08,09,10,11,12,1.0,1.0,1.0*30
$GPRMC,132645.940,A,4651.839,N,07103.672,W,038.9,125.6,300123,000.0,W*61
$GPGGA,132646.940,4651.831,N,07103.661,W,1,12,1.0,0.0,M,0.0,M,,*7D
$GPGSA,A,3,01,02,03,04,05,06,07,08,09,10,11,12,1.0,1.0,1.0*30
$GPRMC,132646.940,A,4651.831,N,07103.661,W,038.9,125.6,300123,000.0,W*68
$GPGGA,132647.940,4651.824,N,07103.650,W,1,12,1.0,0.0,M,0.0,M,,*7A
$GPGSA,A,3,01,02,03,04,05,06,07,08,09,10,11,12,1.0,1.0,1.0*30
$GPRMC,132647.940,A,4651.824,N,07103.650,W,038.9,125.6,300123,000.0,W*6F
$GPGGA,132648.940,4651.816,N,07103.639,W,1,12,1.0,0.0,M,0.0,M,,*7B
$GPGSA,A,3,01,02,03,04,05,06,07,08,09,10,11,12,1.0,1.0,1.0*30
$GPRMC,132648.940,A,4651.816,N,07103.639,W,038.9,125.6,300123,000.0,W*6E
$GPGGA,132649.940,4651.808,N,07103.628,W,1,12,1.0,0.0,M,0.0,M,,*75
$GPGSA,A,3,01,02,03,04,05,06,07,08,09,10,11,12,1.0,1.0,1.0*30
$GPRMC,132649.940,A,4651.808,N,07103.628,W,038.9,125.6,300123,000.0,W*60
$GPGGA,132650.940,4651.800,N,07103.617,W,1,12,1.0,0.0,M,0.0,M,,*79
$GPGSA,A,3,01,02,03,04,05,06,07,08,09,10,11,12,1.0,1.0,1.0*30
$GPRMC,132650.940,A,4651.800,N,07103.617,W,038.9,125.6,300123,000.0,W*6C
$GPGGA,132651.940,4651.792,N,07103.606,W,1,12,1.0,0.0,M,0.0,M,,*7C
$GPGSA,A,3,01,02,03,04,05,06,07,08,09,10,11,12,1.0,1.0,1.0*30
$GPRMC,132651.940,A,4651.792,N,07103.606,W,038.9,180.5,300123,000.0,W*65
$GPGGA,132652.940,4651.782,N,07103.606,W,1,12,1.0,0.0,M,0.0,M,,*7E
$GPGSA,A,3,01,02,03,04,05,06,07,08,09,10,11,12,1.0,1.0,1.0*30
$GPRMC,132652.940,A,4651.782,N,07103.606,W,038.9,180.5,300123,000.0,W*67
$GPGGA,132653.940,4651.771,N,07103.606,W,1,12,1.0,0.0,M,0.0,M,,*73
$GPGSA,A,3,01,02,03,04,05,06,07,08,09,10,11,12,1.0,1.0,1.0*30
$GPRMC,132653.940,A,4651.771,N,07103.606,W,038.9,180.5,300123,000.0,W*6A
$GPGGA,132654.940,4651.760,N,07103.607,W,1,12,1.0,0.0,M,0.0,M,,*75
$GPGSA,A,3,01,02,03,04,05,06,07,08,09,10,11,12,1.0,1.0,1.0*30
$GPRMC,132654.940,A,4651.760,N,07103.607,W,038.9,180.5,300123,000.0,W*6C
$GPGGA,132655.940,4651.749,N,07103.607,W,1,12,1.0,0.0,M,0.0,M,,*7F
$GPGSA,A,3,01,02,03,04,05,06,07,08,09,10,11,12,1.0,1.0,1.0*30
$GPRMC,132655.940,A,4651.749,N,07103.607,W,038.9,180.5,300123,000.0,W*66
$GPGGA,132656.940,4651.738,N,07103.607,W,1,12,1.0,0.0,M,0.0,M,,*7A
$GPGSA,A,3,01,02,03,04,05,06,07,08,09,10,11,12,1.0,1.0,1.0*30
$GPRMC,132656.940,A,4651.738,N,07103.607,W,038.9,180.5,300123,000.0,W*63
$GPGGA,132657.940,4651.728,N,07103.607,W,1,12,1.0,0.0,M,0.0,M,,*7A
$GPGSA,A,3,01,02,03,04,05,06,07,08,09,10,11,12,1.0,1.0,1.0*30
$GPRMC,132657.940,A,4651.728,N,07103.607,W,038.9,180.5,300123,000.0,W*63
$GPGGA,132658.940,4651.717,N,07103.607,W,1,12,1.0,0.0,M,0.0,M,,*79
$GPGSA,A,3,01,02,03,04,05,06,07,08,09,10,11,12,1.0,1.0,1.0*30
$GPRMC,132658.940,A,4651.717,N,07103.607,W,038.9,180.5,300123,000.0,W*60
$GPGGA,132659.940,4651.706,N,07103.607,W,1,12,1.0,0.0,M,0.0,M,,*78
$GPGSA,A,3,01,02,03,04,05,06,07,08,09,10,11,12,1.0,1.0,1.0*30
$GPRMC,132659.940,A,4651.706,N,07103.607,W,038.9,180.5,300123,000.0,W*61
$GPGGA,132700.940,4651.695,N,07103.607,W,1,12,1.0,0.0,M,0.0,M,,*7E
$GPGSA,A,3,01,02,03,04,05,06,07,08,09,10,11,12,1.0,1.0,1.0*30
$GPRMC,132700.940,A,4651.695,N,07103.607,W,038.9,180.5,300123,000.0,W*67
$GPGGA,132701.940,4651.685,N,07103.607,W,1,12,1.0,0.0,M,0.0,M,,*7E
$GPGSA,A,3,01,02,03,04,05,06,07,08,09,10,11,12,1.0,1.0,1.0*30
$GPRMC,132701.940,A,4651.685,N,07103.607,W,038.9,180.5,300123,000.0,W*67
$GPGGA,132702.940,4651.674,N,07103.607,W,1,12,1.0,0.0,M,0.0,M,,*73
$GPGSA,A,3,01,02,03,04,05,06,07,08,09,10,11,12,1.0,1.0,1.0*30
$GPRMC,132702.940,A,4651.674,N,07103.607,W,038.9,180.5,300123,000.0,W*6A
$GPGGA,132703.940,4651.663,N,07103.607,W,1,12,1.0,0.0,M,0.0,M,,*74
$GPGSA,A,3,01,02,03,04,05,06,07,08,09,10,11,12,1.0,1.0,1.0*30
$GPRMC,132703.940,A,4651.663,N,07103.607,W,038.9,180.5,300123,000.0,W*6D
$GPGGA,132704.940,4651.652,N,07103.608,W,1,12,1.0,0.0,M,0.0,M,,*7E
$GPGSA,A,3,01,02,03,04,05,06,07,08,09,10,11,12,1.0,1.0,1.0*30
$GPRMC,132704.940,A,4651.652,N,07103.608,W,038.9,180.5,300123,000.0,W*67
$GPGGA,132705.940,4651.641,N,07103.608,W,1,12,1.0,0.0,M,0.0,M,,*7D
$GPGSA,A,3,01,02,03,04,05,06,07,08,09,10,11,12,1.0,1.0,1.0*30
$GPRMC,132705.940,A,4651.641,N,07103.608,W,038.9,180.5,300123,000.0,W*64
$GPGGA,132706.940,4651.631,N,07103.608,W,1,12,1.0,0.0,M,0.0,M,,*79
$GPGSA,A,3,01,02,03,04,05,06,07,08,09,10,11,12,1.0,1.0,1.0*30
$GPRMC,132706.940,A,4651.631,N,07103.608,W,038.9,180.5,300123,000.0,W*60
$GPGGA,132707.940,4651.620,N,07103.608,W,1,12,1.0,0.0,M,0.0,M,,*78
$GPGSA,A,3,01,02,03,04,05,06,07,08,09,10,11,12,1.0,1.0,1.0*30
$GPRMC,132707.940,A,4651.620,N,07103.608,W,038.9,180.5,300123,000.0,W*61
$GPGGA,132708.940,4651.609,N,07103.608,W,1,12,1.0,0.0,M,0.0,M,,*7C
$GPGSA,A,3,01,02,03,04,05,06,07,08,09,10,11,12,1.0,1.0,1.0*30
$GPRMC,132708.940,A,4651.609,N,07103.608,W,038.9,180.5,300123,000.0,W*65
$GPGGA,132709.940,4651.598,N,07103.608,W,1,12,1.0,0.0,M,0.0,M,,*76
$GPGSA,A,3,01,02,03,04,05,06,07,08,09,10,11,12,1.0,1.0,1.0*30
$GPRMC,132709.940,A,4651.598,N,07103.608,W,038.9,180.5,300123,000.0,W*6F
$GPGGA,132710.940,4651.587,N,07103.608,W,1,12,1.0,0.0,M,0.0,M,,*70
$GPGSA,A,3,01,02,03,04,05,06,07,08,09,10,11,12,1.0,1.0,1.0*30
$GPRMC,132710.940,A,4651.587,N,07103.608,W,038.9,180.5,300123,000.0,W*69
$GPGGA,132711.940,4651.577,N,07103.608,W,1,12,1.0,0.0,M,0.0,M,,*7E
$GPGSA,A,3,01,02,03,04,05,06,07,08,09,10,11,12,1.0,1.0,1.0*30
$GPRMC,132711.940,A,4651.577,N,07103.608,W,038.9,180.5,300123,000.0,W*67
$GPGGA,132712.940,4651.566,N,07103.608,W,1,12,1.0,0.0,M,0.0,M,,*7D
$GPGSA,A,3,01,02,03,04,05,06,07,08,09,10,11,12,1.0,1.0,1.0*30
$GPRMC,132712.940,A,4651.566,N,07103.608,W,038.9,180.5,300123,000.0,W*64
$GPGGA,132713.940,4651.555,N,07103.608,W,1,12,1.0,0.0,M,0.0,M,,*7C
$GPGSA,A,3,01,02,03,04,05,06,07,08,09,10,11,12,1.0,1.0,1.0*30
$GPRMC,132713.940,A,4651.555,N,07103.608,W,038.9,180.5,300123,000.0,W*65
$GPGGA,132714.940,4651.544,N,07103.609,W,1,12,1.0,0.0,M,0.0,M,,*7A
$GPGSA,A,3,01,02,03,04,05,06,07,08,09,10,11,12,1.0,1.0,1.0*30
$GPRMC,132714.940,A,4651.544,N,07103.609,W,038.9,180.5,300123,000.0,W*63
$GPGGA,132715.940,4651.533,N,07103.609,W,1,12,1.0,0.0,M,0.0,M,,*7B
$GPGSA,A,3,01,02,03,04,05,06,07,08,09,10,11,12,1.0,1.0,1.0*30
$GPRMC,132715.940,A,4651.533,N,07103.609,W,038.9,180.5,300123,000.0,W*62
$GPGGA,132716.940,4651.523,N,07103.609,W,1,12,1.0,0.0,M,0.0,M,,*79
$GPGSA,A,3,01,02,03,04,05,06,07,08,09,10,11,12,1.0,1.0,1.0*30
$GPRMC,132716.940,A,4651.523,N,07103.609,W,038.9,180.5,300123,000.0,W*60
$GPGGA,132717.940,4651.512,N,07103.609,W,1,12,1.0,0.0,M,0.0,M,,*7A
$GPGSA,A,3,01,02,03,04,05,06,07,08,09,10,11,12,1.0,1.0,1.0*30
$GPRMC,132717.940,A,4651.512,N,07103.609,W,038.9,180.5,300123,000.0,W*63
$GPGGA,132718.940,4651.501,N,07103.609,W,1,12,1.0,0.0,M,0.0,M,,*77
$GPGSA,A,3,01,02,03,04,05,06,07,08,09,10,11,12,1.0,1.0,1.0*30
$GPRMC,132718.940,A,4651.501,N,07103.609,W,038.9,180.5,300123,000.0,W*6E
$GPGGA,132719.940,4651.490,N,07103.609,W,1,12,1.0,0.0,M,0.0,M,,*7F
$GPGSA,A,3,01,02,03,04,05,06,07,08,09,10,11,12,1.0,1.0,1.0*30
$GPRMC,132719.940,A,4651.490,N,07103.609,W,038.9,180.5,300123,000.0,W*66
$GPGGA,132720.940,4651.479,N,07103.609,W,1,12,1.0,0.0,M,0.0,M,,*72
$GPGSA,A,3,01,02,03,04,05,06,07,08,09,10,11,12,1.0,1.0,1.0*30
$GPRMC,132720.940,A,4651.479,N,07103.609,W,038.9,180.5,300123,000.0,W*6B
$GPGGA,132721.940,4651.469,N,07103.609,W,1,12,1.0,0.0,M,0.0,M,,*72
$GPGSA,A,3,01,02,03,04,05,06,07,08,09,10,11,12,1.0,1.0,1.0*30
$GPRMC,132721.940,A,4651.469,N,07103.609,W,038.9,180.5,300123,000.0,W*6B
$GPGGA,132722.940,4651.458,N,07103.609,W,1,12,1.0,0.0,M,0.0,M,,*73
$GPGSA,A,3,01,02,03,04,05,06,07,08,09,10,11,12,1.0,1.0,1.0*30
$GPRMC,132722.940,A,4651.458,N,07103.609,W,038.9,180.5,300123,000.0,W*6A
$GPGGA,132723.940,4651.447,N,07103.609,W,1,12,1.0,0.0,M,0.0,M,,*7C
$GPGSA,A,3,01,02,03,04,05,06,07,08,09,10,11,12,1.0,1.0,1.0*30
$GPRMC,132723.940,A,4651.447,N,07103.609,W,038.9,180.5,300123,000.0,W*65
$GPGGA,132724.940,4651.436,N,07103.609,W,1,12,1.0,0.0,M,0.0,M,,*7D
$GPGSA,A,3,01,02,03,04,05,06,07,08,09,10,11,12,1.0,1.0,1.0*30
$GPRMC,132724.940,A,4651.436,N,07103.609,W,038.9,180.5,300123,000.0,W*64
$GPGGA,132725.940,4651.426,N,07103.610,W,1,12,1.0,0.0,M,0.0,M,,*75
$GPGSA,A,3,01,02,03,04,05,06,07,08,09,10,11,12,1.0,1.0,1.0*30
$GPRMC,132725.940,A,4651.426,N,07103.610,W,038.9,180.5,300123,000.0,W*6C
$GPGGA,132726.940,4651.415,N,07103.610,W,1,12,1.0,0.0,M,0.0,M,,*76
$GPGSA,A,3,01,02,03,04,05,06,07,08,09,10,11,12,1.0,1.0,1.0*30
$GPRMC,132726.940,A,4651.415,N,07103.610,W,038.9,180.5,300123,000.0,W*6F
$GPGGA,132727.940,4651.404,N,07103.610,W,1,12,1.0,0.0,M,0.0,M,,*77
$GPGSA,A,3,01,02,03,04,05,06,07,08,09,10,11,12,1.0,1.0,1.0*30
$GPRMC,132727.940,A,4651.404,N,07103.610,W,038.9,163.0,300123,000.0,W*66
$GPGGA,132728.940,4651.393,N,07103.607,W,1,12,1.0,0.0,M,0.0,M,,*77
$GPGSA,A,3,01,02,03,04,05,06,07,08,09,10,11,12,1.0,1.0,1.0*30
$GPRMC,132728.940,A,4651.393,N,07103.607,W,038.9,163.0,300123,000.0,W*66
$GPGGA,132729.940,4651.383,N,07103.603,W,1,12,1.0,0.0,M,0.0,M,,*73
$GPGSA,A,3,01,02,03,04,05,06,07,08,09,10,11,12,1.0,1.0,1.0*30
$GPRMC,132729.940,A,4651.383,N,07103.603,W,038.9,163.0,300123,000.0,W*62
$GPGGA,132730.940,4651.372,N,07103.600,W,1,12,1.0,0.0,M,0.0,M,,*76
$GPGSA,A,3,01,02,03,04,05,06,07,08,09,10,11,12,1.0,1.0,1.0*30
$GPRMC,132730.940,A,4651.372,N,07103.600,W,038.9,163.0,300123,000.0,W*67
$GPGGA,132731.940,4651.362,N,07103.597,W,1,12,1.0,0.0,M,0.0,M,,*7B
$GPGSA,A,3,01,02,03,04,05,06,07,08,09,10,11,12,1.0,1.0,1.0*30
$GPRMC,132731.940,A,4651.362,N,07103.597,W,038.9,163.0,300123,000.0,W*6A
$GPGGA,132732.940,4651.351,N,07103.594,W,1,12,1.0,0.0,M,0.0,M,,*7B
$GPGSA,A,3,01,02,03,04,05,06,07,08,09,10,11,12,1.0,1.0,1.0*30
$GPRMC,132732.940,A,4651.351,N,07103.594,W,038.9,163.0,300123,000.0,W*6A
$GPGGA,132733.940,4651.341,N,07103.590,W,1,12,1.0,0.0,M,0.0,M,,*7F
$GPGSA,A,3,01,02,03,04,05,06,07,08,09,10,11,12,1.0,1.0,1.0*30
$GPRMC,132733.940,A,4651.341,N,07103.590,W,038.9,163.0,300123,000.0,W*6E
$GPGGA,132734.940,4651.330,N,07103.587,W,1,12,1.0,0.0,M,0.0,M,,*78
$GPGSA,A,3,01,02,03,04,05,06,07,08,09,10,11,12,1.0,1.0,1.0*30
$GPRMC,132734.940,A,4651.330,N,07103.587,W,038.9,163.0,300123,000.0,W*69
$GPGGA,132735.940,4651.319,N,07103.584,W,1,12,1.0,0.0,M,0.0,M,,*71
$GPGSA,A,3,01,02,03,04,05,06,07,08,09,10,11,12,1.0,1.0,1.0*30
$GPRMC,132735.940,A,4651.319,N,07103.584,W,038.9,163.0,300123,000.0,W*60
$GPGGA,132736.940,4651.309,N,07103.581,W,1,12,1.0,0.0,M,0.0,M,,*76
$GPGSA,A,3,01,02,03,04,05,06,07,08,09,10,11,12,1.0,1.0,1.0*30
$GPRMC,132736.940,A,4651.309,N,07103.581,W,038.9,163.0,300123,000.0,W*67
$GPGGA,132737.940,4651.298,N,07103.577,W,1,12,1.0,0.0,M,0.0,M,,*77
$GPGSA,A,3,01,02,03,04,05,06,07,08,09,10,11,12,1.0,1.0,1.0*30
$GPRMC,132737.940,A,4651.298,N,07103.577,W,038.9,163.0,300123,000.0,W*66
$GPGGA,132738.940,4651.288,N,07103.574,W,1,12,1.0,0.0,M,0.0,M,,*7A
$GPGSA,A,3,01,02,03,04,05,06,07,08,09,10,11,12,1.0,1.0,1.0*30
$GPRMC,132738.940,A,4651.288,N,07103.574,W,038.9,163.0,300123,000.0,W*6B
$GPGGA,132739.940,4651.277,N,07103.571,W,1,12,1.0,0.0,M,0.0,M,,*7E
$GPGSA,A,3,01,02,03,04,05,06,07,08,09,10,11,12,1.0,1.0,1.0*30
$GPRMC,132739.940,A,4651.277,N,07103.571,W,038.9,163.0,300123,000.0,W*6F
$GPGGA,132740.940,4651.267,N,07103.568,W,1,12,1.0,0.0,M,0.0,M,,*79
$GPGSA,A,3,01,02,03,04,05,06,07,08,09,10,11,12,1.0,1.0,1.0*30
$GPRMC,132740.940,A,4651.267,N,07103.568,W,038.9,163.0,300123,000.0,W*68
$GPGGA,132741.940,4651.256,N,07103.564,W,1,12,1.0,0.0,M,0.0,M,,*76
$GPGSA,A,3,01,02,03,04,05,06,07,08,09,10,11,12,1.0,1.0,1.0*30
$GPRMC,132741.940,A,4651.256,N,07103.564,W,038.9,163.0,300123,000.0,W*67
$GPGGA,132742.940,4651.245,N,07103.561,W,1,12,1.0,0.0,M,0.0,M,,*72
$GPGSA,A,3,01,02,03,04,05,06,07,08,09,10,11,12,1.0,1.0,1.0*30
$GPRMC,132742.940,A,4651.245,N,07103.561,W,038.9,163.0,300123,000.0,W*63
$GPGGA,132743.940,4651.235,N,07103.558,W,1,12,1.0,0.0,M,0.0,M,,*7E
$GPGSA,A,3,01,02,03,04,05,06,07,08,09,10,11,12,1.0,1.0,1.0*30
$GPRMC,132743.940,A,4651.235,N,07103.558,W,038.9,163.0,300123,000.0,W*6F
$GPGGA,132744.940,4651.224,N,07103.555,W,1,12,1.0,0.0,M,0.0,M,,*74
$GPGSA,A,3,01,02,03,04,05,06,07,08,09,10,11,12,1.0,1.0,1.0*30
$GPRMC,132744.940,A,4651.224,N,07103.555,W,038.9,163.0,300123,000.0,W*65
$GPGGA,132745.940,4651.214,N,07103.551,W,1,12,1.0,0.0,M,0.0,M,,*72
$GPGSA,A,3,01,02,03,04,05,06,07,08,09,10,11,12,1.0,1.0,1.0*30
$GPRMC,132745.940,A,4651.214,N,07103.551,W,038.9,163.0,300123,000.0,W*63
$GPGGA,132746.940,4651.203,N,07103.548,W,1,12,1.0,0.0,M,0.0,M,,*7F
$GPGSA,A,3,01,02,03,04,05,06,07,08,09,10,11,12,1.0,1.0,1.0*30
$GPRMC,132746.940,A,4651.203,N,07103.548,W,038.9,163.0,300123,000.0,W*6E
$GPGGA,132747.940,4651.193,N,07103.545,W,1,12,1.0,0.0,M,0.0,M,,*79
$GPGSA,A,3,01,02,03,04,05,06,07,08,09,10,11,12,1.0,1.0,1.0*30
$GPRMC,132747.940,A,4651.193,N,07103.545,W,038.9,163.0,300123,000.0,W*68
$GPGGA,132748.940,4651.182,N,07103.542,W,1,12,1.0,0.0,M,0.0,M,,*71
$GPGSA,A,3,01,02,03,04,05,06,07,08,09,10,11,12,1.0,1.0,1.0*30
$GPRMC,132748.940,A,4651.182,N,07103.542,W,038.9,163.0,300123,000.0,W*60
$GPGGA,132749.940,4651.172,N,07103.538,W,1,12,1.0,0.0,M,0.0,M,,*72
$GPGSA,A,3,01,02,03,04,05,06,07,08,09,10,11,12,1.0,1.0,1.0*30
$GPRMC,132749.940,A,4651.172,N,07103.538,W,038.9,163.0,300123,000.0,W*63
$GPGGA,132750.940,4651.161,N,07103.535,W,1,12,1.0,0.0,M,0.0,M,,*75
$GPGSA,A,3,01,02,03,04,05,06,07,08,09,10,11,12,1.0,1.0,1.0*30
$GPRMC,132750.940,A,4651.161,N,07103.535,W,038.9,163.0,300123,000.0,W*64
$GPGGA,132751.940,4651.150,N,07103.532,W,1,12,1.0,0.0,M,0.0,M,,*71
$GPGSA,A,3,01,02,03,04,05,06,07,08,09,10,11,12,1.0,1.0,1.0*30
$GPRMC,132751.940,A,4651.150,N,07103.532,W,038.9,163.0,300123,000.0,W*60
$GPGGA,132752.940,4651.140,N,07103.529,W,1,12,1.0,0.0,M,0.0,M,,*79
$GPGSA,A,3,01,02,03,04,05,06,07,08,09,10,11,12,1.0,1.0,1.0*30
$GPRMC,132752.940,A,4651.140,N,07103.529,W,038.9,163.0,300123,000.0,W*68
$GPGGA,132753.940,4651.129,N,07103.526,W,1,12,1.0,0.0,M,0.0,M,,*78
$GPGSA,A,3,01,02,03,04,05,06,07,08,09,10,11,12,1.0,1.0,1.0*30
$GPRMC,132753.940,A,4651.129,N,07103.526,W,038.9,163.0,300123,000.0,W*69
$GPGGA,132754.940,4651.119,N,07103.522,W,1,12,1.0,0.0,M,0.0,M,,*78
$GPGSA,A,3,01,02,03,04,05,06,07,08,09,10,11,12,1.0,1.0,1.0*30
$GPRMC,132754.940,A,4651.119,N,07103.522,W,038.9,163.0,300123,000.0,W*69
$GPGGA,132755.940,4651.108,N,07103.519,W,1,12,1.0,0.0,M,0.0,M,,*71
$GPGSA,A,3,01,02,03,04,05,06,07,08,09,10,11,12,1.0,1.0,1.0*30
$GPRMC,132755.940,A,4651.108,N,07103.519,W,038.9,163.0,300123,000.0,W*60
$GPGGA,132756.940,4651.098,N,07103.516,W,1,12,1.0,0.0,M,0.0,M,,*75
$GPGSA,A,3,01,02,03,04,05,06,07,08,09,10,11,12,1.0,1.0,1.0*30
$GPRMC,132756.940,A,4651.098,N,07103.516,W,038.9,163.0,300123,000.0,W*64
$GPGGA,132757.940,4651.087,N,07103.513,W,1,12,1.0,0.0,M,0.0,M,,*7F
$GPGSA,A,3,01,02,03,04,05,06,07,08,09,10,11,12,1.0,1.0,1.0*30
$GPRMC,132757.940,A,4651.087,N,07103.513,W,038.9,163.0,300123,000.0,W*6E
$GPGGA,132758.940,4651.077,N,07103.509,W,1,12,1.0,0.0,M,0.0,M,,*74
$GPGSA,A,3,01,02,03,04,05,06,07,08,09,10,11,12,1.0,1.0,1.0*30
$GPRMC,132758.940,A,4651.077,N,07103.509,W,038.9,163.0,300123,000.0,W*65
$GPGGA,132759.940,4651.066,N,07103.506,W,1,12,1.0,0.0,M,0.0,M,,*7A
$GPGSA,A,3,01,02,03,04,05,06,07,08,09,10,11,12,1.0,1.0,1.0*30
$GPRMC,132759.940,A,4651.066,N,07103.506,W,038.9,163.0,300123,000.0,W*6B
$GPGGA,132800.940,4651.055,N,07103.503,W,1,12,1.0,0.0,M,0.0,M,,*7C
$GPGSA,A,3,01,02,03,04,05,06,07,08,09,10,11,12,1.0,1.0,1.0*30
$GPRMC,132800.940,A,4651.055,N,07103.503,W,038.9,163.0,300123,000.0,W*6D
$GPGGA,132801.940,4651.045,N,07103.500,W,1,12,1.0,0.0,M,0.0,M,,*7F
$GPGSA,A,3,01,02,03,04,05,06,07,08,09,10,11,12,1.0,1.0,1.0*30
$GPRMC,132801.940,A,4651.045,N,07103.500,W,038.9,163.0,300123,000.0,W*6E
$GPGGA,132802.940,4651.034,N,07103.496,W,1,12,1.0,0.0,M,0.0,M,,*74
$GPGSA,A,3,01,02,03,04,05,06,07,08,09,10,11,12,1.0,1.0,1.0*30
$GPRMC,132802.940,A,4651.034,N,07103.496,W,038.9,163.0,300123,000.0,W*65
$GPGGA,132803.940,4651.024,N,07103.493,W,1,12,1.0,0.0,M,0.0,M,,*71
$GPGSA,A,3,01,02,03,04,05,06,07,08,09,10,11,12,1.0,1.0,1.0*30
$GPRMC,132803.940,A,4651.024,N,07103.493,W,038.9,162.7,300123,000.0,W*66
$GPGGA,132804.940,4651.013,N,07103.490,W,1,12,1.0,0.0,M,0.0,M,,*71
$GPGSA,A,3,01,02,03,04,05,06,07,08,09,10,11,12,1.0,1.0,1.0*30
$GPRMC,132804.940,A,4651.013,N,07103.490,W,038.9,162.7,300123,000.0,W*66
$GPGGA,132805.940,4651.003,N,07103.487,W,1,12,1.0,0.0,M,0.0,M,,*77
$GPGSA,A,3,01,02,03,04,05,06,07,08,09,10,11,12,1.0,1.0,1.0*30
$GPRMC,132805.940,A,4651.003,N,07103.487,W,038.9,162.7,300123,000.0,W*60
$GPGGA,132806.940,4650.992,N,07103.483,W,1,12,1.0,0.0,M,0.0,M,,*70
$GPGSA,A,3,01,02,03,04,05,06,07,08,09,10,11,12,1.0,1.0,1.0*30
$GPRMC,132806.940,A,4650.992,N,07103.483,W,038.9,162.7,300123,000.0,W*67
$GPGGA,132807.940,4650.981,N,07103.480,W,1,12,1.0,0.0,M,0.0,M,,*70
$GPGSA,A,3,01,02,03,04,05,06,07,08,09,10,11,12,1.0,1.0,1.0*30
$GPRMC,132807.940,A,4650.981,N,07103.480,W,038.9,162.7,300123,000.0,W*67
$GPGGA,132808.940,4650.971,N,07103.477,W,1,12,1.0,0.0,M,0.0,M,,*78
$GPGSA,A,3,01,02,03,04,05,06,07,08,09,10,11,12,1.0,1.0,1.0*30
$GPRMC,132808.940,A,4650.971,N,07103.477,W,038.9,162.7,300123,000.0,W*6F
$GPGGA,132809.940,4650.960,N,07103.473,W,1,12,1.0,0.0,M,0.0,M,,*7D
$GPGSA,A,3,01,02,03,04,05,06,07,08,09,10,11,12,1.0,1.0,1.0*30
$GPRMC,132809.940,A,4650.960,N,07103.473,W,038.9,162.7,300123,000.0,W*6A
$GPGGA,132810.940,4650.950,N,07103.470,W,1,12,1.0,0.0,M,0.0,M,,*75
$GPGSA,A,3,01,02,03,04,05,06,07,08,09,10,11,12,1.0,1.0,1.0*30
$GPRMC,132810.940,A,4650.950,N,07103.470,W,038.9,162.7,300123,000.0,W*62
$GPGGA,132811.940,4650.939,N,07103.467,W,1,12,1.0,0.0,M,0.0,M,,*7D
$GPGSA,A,3,01,02,03,04,05,06,07,08,09,10,11,12,1.0,1.0,1.0*30
$GPRMC,132811.940,A,4650.939,N,07103.467,W,038.9,162.7,300123,000.0,W*6A
$GPGGA,132812.940,4650.929,N,07103.463,W,1,12,1.0,0.0,M,0.0,M,,*7B
$GPGSA,A,3,01,02,03,04,05,06,07,08,09,10,11,12,1.0,1.0,1.0*30
$GPRMC,132812.940,A,4650.929,N,07103.463,W,038.9,162.7,300123,000.0,W*6C
$GPGGA,132813.940,4650.918,N,07103.460,W,1,12,1.0,0.0,M,0.0,M,,*7B
$GPGSA,A,3,01,02,03,04,05,06,07,08,09,10,11,12,1.0,1.0,1.0*30
$GPRMC,132813.940,A,4650.918,N,07103.460,W,038.9,162.7,300123,000.0,W*6C
$GPGGA,132814.940,4650.908,N,07103.457,W,1,12,1.0,0.0,M,0.0,M,,*79
$GPGSA,A,3,01,02,03,04,05,06,07,08,09,10,11,12,1.0,1.0,1.0*30
$GPRMC,132814.940,A,4650.908,N,07103.457,W,038.9,162.7,300123,000.0,W*6E
$GPGGA,132815.940,4650.897,N,07103.454,W,1,12,1.0,0.0,M,0.0,M,,*7C
$GPGSA,A,3,01,02,03,04,05,06,07,08,09,10,11,12,1.0,1.0,1.0*30
$GPRMC,132815.940,A,4650.897,N,07103.454,W,038.9,162.7,300123,000.0,W*6B
$GPGGA,132816.940,4650.886,N,07103.450,W,1,12,1.0,0.0,M,0.0,M,,*7B
$GPGSA,A,3,01,02,03,04,05,06,07,08,09,10,11,12,1.0,1.0,1.0*30
$GPRMC,132816.940,A,4650.886,N,07103.450,W,038.9,162.7,300123,000.0,W*6C
$GPGGA,132817.940,4650.876,N,07103.447,W,1,12,1.0,0.0,M,0.0,M,,*73
$GPGSA,A,3,01,02,03,04,05,06,07,08,09,10,11,12,1.0,1.0,1.0*30
$GPRMC,132817.940,A,4650.876,N,07103.447,W,038.9,162.7,300123,000.0,W*64
$GPGGA,132818.940,4650.865,N,07103.444,W,1,12,1.0,0.0,M,0.0,M,,*7D
$GPGSA,A,3,01,02,03,04,05,06,07,08,09,10,11,12,1.0,1.0,1.0*30
$GPRMC,132818.940,A,4650.865,N,07103.444,W,038.9,162.7,300123,000.0,W*6A
$GPGGA,132819.940,4650.855,N,07103.440,W,1,12,1.0,0.0,M,0.0,M,,*7B
$GPGSA,A,3,01,02,03,04,05,06,07,08,09,10,11,12,1.0,1.0,1.0*30
$GPRMC,132819.940,A,4650.855,N,07103.440,W,038.9,162.7,300123,000.0,W*6C
$GPGGA,132820.940,4650.844,N,07103.437,W,1,12,1.0,0.0,M,0.0,M,,*71
$GPGSA,A,3,01,02,03,04,05,06,07,08,09,10,11,12,1.0,1.0,1.0*30
$GPRMC,132820.940,A,4650.844,N,07103.437,W,038.9,162.7,300123,000.0,W*66
$GPGGA,132821.940,4650.834,N,07103.434,W,1,12,1.0,0.0,M,0.0,M,,*74
$GPGSA,A,3,01,02,03,04,05,06,07,08,09,10,11,12,1.0,1.0,1.0*30
$GPRMC,132821.940,A,4650.834,N,07103.434,W,038.9,162.7,300123,000.0,W*63
$GPGGA,132822.940,4650.823,N,07103.430,W,1,12,1.0,0.0,M,0.0,M,,*75
$GPGSA,A,3,01,02,03,04,05,06,07,08,09,10,11,12,1.0,1.0,1.0*30
$GPRMC,132822.940,A,4650.823,N,07103.430,W,038.9,162.7,300123,000.0,W*62
$GPGGA,132823.940,4650.813,N,07103.427,W,1,12,1.0,0.0,M,0.0,M,,*71
$GPGSA,A,3,01,02,03,04,05,06,07,08,09,10,11,12,1.0,1.0,1.0*30
$GPRMC,132823.940,A,4650.813,N,07103.427,W,038.9,162.7,300123,000.0,W*66
$GPGGA,132824.940,4650.802,N,07103.424,W,1,12,1.0,0.0,M,0.0,M,,*75
$GPGSA,A,3,01,02,03,04,05,06,07,08,09,10,11,12,1.0,1.0,1.0*30
$GPRMC,132824.940,A,4650.802,N,07103.424,W,038.9,162.7,300123,000.0,W*62
$GPGGA,132825.940,4650.792,N,07103.421,W,1,12,1.0,0.0,M,0.0,M,,*77
$GPGSA,A,3,01,02,03,04,05,06,07,08,09,10,11,12,1.0,1.0,1.0*30
$GPRMC,132825.940,A,4650.792,N,07103.421,W,038.9,162.7,300123,000.0,W*60
$GPGGA,132826.940,4650.781,N,07103.417,W,1,12,1.0,0.0,M,0.0,M,,*73
$GPGSA,A,3,01,02,03,04,05,06,07,08,09,10,11,12,1.0,1.0,1.0*30
$GPRMC,132826.940,A,4650.781,N,07103.417,W,038.9,162.7,300123,000.0,W*64
$GPGGA,132827.940,4650.770,N,07103.414,W,1,12,1.0,0.0,M,0.0,M,,*7F
$GPGSA,A,3,01,02,03,04,05,06,07,08,09,10,11,12,1.0,1.0,1.0*30
$GPRMC,132827.940,A,4650.770,N,07103.414,W,038.9,162.7,300123,000.0,W*68
$GPGGA,132828.940,4650.760,N,07103.411,W,1,12,1.0,0.0,M,0.0,M,,*74
$GPGSA,A,3,01,02,03,04,05,06,07,08,09,10,11,12,1.0,1.0,1.0*30
$GPRMC,132828.940,A,4650.760,N,07103.411,W,038.9,162.7,300123,000.0,W*63
$GPGGA,132829.940,4650.749,N,07103.407,W,1,12,1.0,0.0,M,0.0,M,,*79
$GPGSA,A,3,01,02,03,04,05,06,07,08,09,10,11,12,1.0,1.0,1.0*30
$GPRMC,132829.940,A,4650.749,N,07103.407,W,038.9,162.7,300123,000.0,W*6E
$GPGGA,132830.940,4650.739,N,07103.404,W,1,12,1.0,0.0,M,0.0,M,,*75
$GPGSA,A,3,01,02,03,04,05,06,07,08,09,10,11,12,1.0,1.0,1.0*30
$GPRMC,132830.940,A,4650.739,N,07103.404,W,038.9,162.7,300123,000.0,W*62
$GPGGA,132831.940,4650.728,N,07103.401,W,1,12,1.0,0.0,M,0.0,M,,*71
$GPGSA,A,3,01,02,03,04,05,06,07,08,09,10,11,12,1.0,1.0,1.0*30
$GPRMC,132831.940,A,4650.728,N,07103.401,W,038.9,162.7,300123,000.0,W*66
$GPGGA,132832.940,4650.718,N,07103.398,W,1,12,1.0,0.0,M,0.0,M,,*76
$GPGSA,A,3,01,02,03,04,05,06,07,08,09,10,11,12,1.0,1.0,1.0*30
$GPRMC,132832.940,A,4650.718,N,07103.398,W,038.9,162.7,300123,000.0,W*61
$GPGGA,132833.940,4650.707,N,07103.394,W,1,12,1.0,0.0,M,0.0,M,,*75
$GPGSA,A,3,01,02,03,04,05,06,07,08,09,10,11,12,1.0,1.0,1.0*30
$GPRMC,132833.940,A,4650.707,N,07103.394,W,038.9,162.7,300123,000.0,W*62
$GPGGA,132834.940,4650.697,N,07103.391,W,1,12,1.0,0.0,M,0.0,M,,*7F
$GPGSA,A,3,01,02,03,04,05,06,07,08,09,10,11,12,1.0,1.0,1.0*30
$GPRMC,132834.940,A,4650.697,N,07103.391,W,038.9,162.7,300123,000.0,W*68
$GPGGA,132835.940,4650.686,N,07103.388,W,1,12,1.0,0.0,M,0.0,M,,*76
$GPGSA,A,3,01,02,03,04,05,06,07,08,09,10,11,12,1.0,1.0,1.0*30
$GPRMC,132835.940,A,4650.686,N,07103.388,W,038.9,162.7,300123,000.0,W*61
$GPGGA,132836.940,4650.675,N,07103.384,W,1,12,1.0,0.0,M,0.0,M,,*75
$GPGSA,A,3,01,02,03,04,05,06,07,08,09,10,11,12,1.0,1.0,1.0*30
$GPRMC,132836.940,A,4650.675,N,07103.384,W,038.9,162.7,300123,000.0,W*62
$GPGGA,132837.940,4650.665,N,07103.381,W,1,12,1.0,0.0,M,0.0,M,,*70
$GPGSA,A,3,01,02,03,04,05,06,07,08,09,10,11,12,1.0,1.0,1.0*30
$GPRMC,132837.940,A,4650.665,N,07103.381,W,038.9,162.7,300123,000.0,W*67
$GPGGA,132838.940,4650.654,N,07103.378,W,1,12,1.0,0.0,M,0.0,M,,*7B
$GPGSA,A,3,01,02,03,04,05,06,07,08,09,10,11,12,1.0,1.0,1.0*30
$GPRMC,132838.940,A,4650.654,N,07103.378,W,038.9,162.7,300123,000.0,W*6C
$GPGGA,132839.940,4650.644,N,07103.374,W,1,12,1.0,0.0,M,0.0,M,,*77
$GPGSA,A,3,01,02,03,04,05,06,07,08,09,10,11,12,1.0,1.0,1.0*30
$GPRMC,132839.940,A,4650.644,N,07103.374,W,038.9,162.7,300123,000.0,W*60
$GPGGA,132840.940,4650.633,N,07103.371,W,1,12,1.0,0.0,M,0.0,M,,*7C
$GPGSA,A,3,01,02,03,04,05,06,07,08,09,10,11,12,1.0,1.0,1.0*30
$GPRMC,132840.940,A,4650.633,N,07103.371,W,038.9,162.7,300123,000.0,W*6B
$GPGGA,132841.940,4650.623,N,07103.368,W,1,12,1.0,0.0,M,0.0,M,,*74
$GPGSA,A,3,01,02,03,04,05,06,07,08,09,10,11,12,1.0,1.0,1.0*30
$GPRMC,132841.940,A,4650.623,N,07103.368,W,038.9,162.7,300123,000.0,W*63
$GPGGA,132842.940,4650.612,N,07103.365,W,1,12,1.0,0.0,M,0.0,M,,*78
$GPGSA,A,3,01,02,03,04,05,06,07,08,09,10,11,12,1.0,1.0,1.0*30
$GPRMC,132842.940,A,4650.612,N,07103.365,W,038.9,162.7,300123,000.0,W*6F
$GPGGA,132843.940,4650.602,N,07103.361,W,1,12,1.0,0.0,M,0.0,M,,*7C
$GPGSA,A,3,01,02,03,04,05,06,07,08,09,10,11,12,1.0,1.0,1.0*30
$GPRMC,132843.940,A,4650.602,N,07103.361,W,038.9,162.7,300123,000.0,W*6B
$GPGGA,132844.940,4650.591,N,07103.358,W,1,12,1.0,0.0,M,0.0,M,,*78
$GPGSA,A,3,01,02,03,04,05,06,07,08,09,10,11,12,1.0,1.0,1.0*30
$GPRMC,132844.940,A,4650.591,N,07103.358,W,038.9,162.7,300123,000.0,W*6F
$GPGGA,132845.940,4650.580,N,07103.355,W,1,12,1.0,0.0,M,0.0,M,,*74
$GPGSA,A,3,01,02,03,04,05,06,07,08,09,10,11,12,1.0,1.0,1.0*30
$GPRMC,132845.940,A,4650.580,N,07103.355,W,038.9,162.7,300123,000.0,W*63
$GPGGA,132846.940,4650.570,N,07103.351,W,1,12,1.0,0.0,M,0.0,M,,*7C
$GPGSA,A,3,01,02,03,04,05,06,07,08,09,10,11,12,1.0,1.0,1.0*30
$GPRMC,132846.940,A,4650.570,N,07103.351,W,038.9,162.7,300123,000.0,W*6B
$GPGGA,132847.940,4650.559,N,07103.348,W,1,12,1.0,0.0,M,0.0,M,,*7E
$GPGSA,A,3,01,02,03,04,05,06,07,08,09,10,11,12,1.0,1.0,1.0*30
$GPRMC,132847.940,A,4650.559,N,07103.348,W,038.9,162.7,300123,000.0,W*69
$GPGGA,132848.940,4650.549,N,07103.345,W,1,12,1.0,0.0,M,0.0,M,,*7D
$GPGSA,A,3,01,02,03,04,05,06,07,08,09,10,11,12,1.0,1.0,1.0*30
$GPRMC,132848.940,A,4650.549,N,07103.345,W,038.9,162.7,300123,000.0,W*6A
$GPGGA,132849.940,4650.538,N,07103.341,W,1,12,1.0,0.0,M,0.0,M,,*7E
$GPGSA,A,3,01,02,03,04,05,06,07,08,09,10,11,12,1.0,1.0,1.0*30
$GPRMC,132849.940,A,4650.538,N,07103.341,W,038.9,162.7,300123,000.0,W*69
$GPGGA,132850.940,4650.528,N,07103.338,W,1,12,1.0,0.0,M,0.0,M,,*79
$GPGSA,A,3,01,02,03,04,05,06,07,08,09,10,11,12,1.0,1.0,1.0*30
$GPRMC,132850.940,A,4650.528,N,07103.338,W,038.9,162.7,300123,000.0,W*6E
$GPGGA,132851.940,4650.517,N,07103.335,W,1,12,1.0,0.0,M,0.0,M,,*79
$GPGSA,A,3,01,02,03,04,05,06,07,08,09,10,11,12,1.0,1.0,1.0*30
$GPRMC,132851.940,A,4650.517,N,07103.335,W,038.9,162.7,300123,000.0,W*6E
$GPGGA,132852.940,4650.507,N,07103.332,W,1,12,1.0,0.0,M,0.0,M,,*7C
$GPGSA,A,3,01,02,03,04,05,06,07,08,09,10,11,12,1.0,1.0,1.0*30
$GPRMC,132852.940,A,4650.507,N,07103.332,W,038.9,162.7,300123,000.0,W*6B
$GPGGA,132853.940,4650.496,N,07103.328,W,1,12,1.0,0.0,M,0.0,M,,*7F
$GPGSA,A,3,01,02,03,04,05,06,07,08,09,10,11,12,1.0,1.0,1.0*30
$GPRMC,132853.940,A,4650.496,N,07103.328,W,038.9,162.7,300123,000.0,W*68
$GPGGA,132854.940,4650.485,N,07103.325,W,1,12,1.0,0.0,M,0.0,M,,*77
$GPGSA,A,3,01,02,03,04,05,06,07,08,09,10,11,12,1.0,1.0,1.0*30
$GPRMC,132854.940,A,4650.485,N,07103.325,W,038.9,162.7,300123,000.0,W*60
$GPGGA,132855.940,4650.475,N,07103.322,W,1,12,1.0,0.0,M,0.0,M,,*7E
$GPGSA,A,3,01,02,03,04,05,06,07,08,09,10,11,12,1.0,1.0,1.0*30
$GPRMC,132855.940,A,4650.475,N,07103.322,W,038.9,162.7,300123,000.0,W*69
$GPGGA,132856.940,4650.464,N,07103.318,W,1,12,1.0,0.0,M,0.0,M,,*74
$GPGSA,A,3,01,02,03,04,05,06,07,08,09,10,11,12,1.0,1.0,1.0*30
$GPRMC,132856.940,A,4650.464,N,07103.318,W,038.9,162.7,300123,000.0,W*63
$GPGGA,132857.940,4650.454,N,07103.315,W,1,12,1.0,0.0,M,0.0,M,,*7B
$GPGSA,A,3,01,02,03,04,05,06,07,08,09,10,11,12,1.0,1.0,1.0*30
$GPRMC,132857.940,A,4650.454,N,07103.315,W,038.9,162.7,300123,000.0,W*6C
$GPGGA,132858.940,4650.443,N,07103.312,W,1,12,1.0,0.0,M,0.0,M,,*75
$GPGSA,A,3,01,02,03,04,05,06,07,08,09,10,11,12,1.0,1.0,1.0*30
$GPRMC,132858.940,A,4650.443,N,07103.312,W,038.9,162.7,300123,000.0,W*62
$GPGGA,132859.940,4650.433,N,07103.308,W,1,12,1.0,0.0,M,0.0,M,,*78
$GPGSA,A,3,01,02,03,04,05,06,07,08,09,10,11,12,1.0,1.0,1.0*30
$GPRMC,132859.940,A,4650.433,N,07103.308,W,038.9,162.7,300123,000.0,W*6F
$GPGGA,132900.940,4650.422,N,07103.305,W,1,12,1.0,0.0,M,0.0,M,,*78
$GPGSA,A,3,01,02,03,04,05,06,07,08,09,10,11,12,1.0,1.0,1.0*30
$GPRMC,132900.940,A,4650.422,N,07103.305,W,038.9,162.7,300123,000.0,W*6F
$GPGGA,132901.940,4650.412,N,07103.302,W,1,12,1.0,0.0,M,0.0,M,,*7D
$GPGSA,A,3,01,02,03,04,05,06,07,08,09,10,11,12,1.0,1.0,1.0*30
$GPRMC,132901.940,A,4650.412,N,07103.302,W,038.9,162.7,300123,000.0,W*6A
$GPGGA,132902.940,4650.401,N,07103.299,W,1,12,1.0,0.0,M,0.0,M,,*7F
$GPGSA,A,3,01,02,03,04,05,06,07,08,09,10,11,12,1.0,1.0,1.0*30
$GPRMC,132902.940,A,4650.401,N,07103.299,W,038.9,162.7,300123,000.0,W*68
$GPGGA,132903.940,4650.390,N,07103.295,W,1,12,1.0,0.0,M,0.0,M,,*7D
$GPGSA,A,3,01,02,03,04,05,06,07,08,09,10,11,12,1.0,1.0,1.0*30
$GPRMC,132903.940,A,4650.390,N,07103.295,W,038.9,162.7,300123,000.0,W*6A
$GPGGA,132904.940,4650.380,N,07103.292,W,1,12,1.0,0.0,M,0.0,M,,*7C
$GPGSA,A,3,01,02,03,04,05,06,07,08,09,10,11,12,1.0,1.0,1.0*30
$GPRMC,132904.940,A,4650.380,N,07103.292,W,038.9,162.7,300123,000.0,W*6B
$GPGGA,132905.940,4650.369,N,07103.289,W,1,12,1.0,0.0,M,0.0,M,,*70
$GPGSA,A,3,01,02,03,04,05,06,07,08,09,10,11,12,1.0,1.0,1.0*30
$GPRMC,132905.940,A,4650.369,N,07103.289,W,038.9,162.7,300123,000.0,W*67
$GPGGA,132906.940,4650.359,N,07103.285,W,1,12,1.0,0.0,M,0.0,M,,*7C
$GPGSA,A,3,01,02,03,04,05,06,07,08,09,10,11,12,1.0,1.0,1.0*30
$GPRMC,132906.940,A,4650.359,N,07103.285,W,038.9,162.7,300123,000.0,W*6B
$GPGGA,132907.940,4650.348,N,07103.282,W,1,12,1.0,0.0,M,0.0,M,,*7A
$GPGSA,A,3,01,02,03,04,05,06,07,08,09,10,11,12,1.0,1.0,1.0*30
$GPRMC,132907.940,A,4650.348,N,07103.282,W,038.9,162.7,300123,000.0,W*6D
